stop_id,stop_name,stop_lat,stop_lon,stop_code
110,Muzeum II Wojny Światowej 02,54.357652042573,18.658762469243,110
114,Wrzeszcz PKP 03,54.381309866159,18.604544291995,114
116,Wrzeszcz PKP 05,54.38130968393,18.604082272267,116
117,Oliwa PKP 04,54.411139542445,18.57221153255,117
121,Żabianka SKM 02,54.421120079417,18.570064371155,121
134,Chełm Cienista 02,54.33770770484,18.62631189822,134
151,Suchanino 01,54.354108692995,18.607374322207,151
160,Galaktyczna 01,54.428123736317,18.486218293783,160
183,Kampinoska 01,54.316288027813,18.60329664045,183
184,Olimpijska 01,54.305623231915,18.58110341694,184
188,Politechnika SKM 01,54.373945269957,18.62628436854,188
201,Jelitkowo 02,54.423227563447,18.592694866784,201
221,Łostowice Świętokrzyska 01,54.322493962357,18.605703925732,221
292,Zajezdnia NOWY PORT T1,54.397144747453,18.673676167342,292
300,Baza Hallera T1,54.397216624219,18.621550824037,300
313,Wrzeszcz PKP 06,54.381765804908,18.603963286819,313
320,Oliwa Pętla Tramwajowa 09,54.409652629157,18.567568008085,320
342,Górki Wschodnie 02,54.350810691663,18.79079053223,342
1011,Plac Komorowskiego 03,54.382560207042,18.615021446904,1011
1013,Dworzec Główny 18,54.354833361323,18.645117144898,1013
1016,Dworzec Główny 07,54.355062678601,18.645812012175,1016
1021,Dworzec Główny 08,54.356269249753,18.645450557919,1021
1028,Brama Wyżynna 05,54.350370743771,18.646311182071,1028
1032,Cygańska Góra 04,54.359085818568,18.618567875494,1032
1041,Długie Ogrody 01,54.347769298017,18.663710164393,1041
1053,Sówki 01,54.361413147893,18.729495932592,1053
1055,Steczka 01,54.359618937385,18.740708257105,1055
1056,Sówki 02,54.361452227347,18.730617474992,1056
1060,Kępna 02,54.359011996083,18.747190896861,1060
1062,Baza Manipulacyjna 02,54.353791252184,18.757926573979,1062
1070,Sucharskiego - PKP 02,54.371826052906,18.683299608698,1070
1080,Przystań Żeglugi 02,54.402959708796,18.682484392498,1080
1081,Ku Ujściu 03,54.380214830033,18.680563174241,1081
1082,Ku Ujściu 04,54.378180853651,18.678106165403,1082
1085,Brodnicka 01,54.345737528041,18.476709566675,1085
1086,Brodnicka 02,54.345503439419,18.476693137845,1086
1090,Siennicka 02,54.356773752656,18.679375599717,1090
1102,Miałki Szlak 01,54.349290630938,18.680120604151,1102
1106,Tarcice 01,54.352332417978,18.70851272745,1106
1108,Michałki 01,54.34719964854,18.718015736464,1108
1110,Rafineria 01,54.344036766024,18.721899207542,1110
1111,Rafineria 02,54.343165142854,18.723347583482,1111
1112,Rejenta 02,54.342251484879,18.605586134944,1112
1115,Zosi 01,54.343474502954,18.61059267042,1115
1117,Świtezianki 02,54.345886488012,18.613453298838,1117
1129,Olsztyńska 04,54.405539886112,18.604210349256,1129
1134,Pole Namiotowe 01,54.342390291996,18.86483196884,1134
1136,Lazurowa 01,54.341660596003,18.872885526465,1136
1137,Lazurowa 02,54.341346717195,18.873947927568,1137
1145,Kempingowa 02,54.336643248705,18.915033400124,1145
1150,Świbnieńska I 01,54.329590765718,18.933031826003,1150
1154,Świbnieńska III 01,54.31492373343,18.93061538767,1154
1160,Oczyszczalnia 01,54.342168882803,18.757990127564,1160
1163,Naftowa 02,54.342931652688,18.770042064783,1163
1164,Płońska 01,54.347049574908,18.773973694551,1164
1165,Płońska 02,54.346960052472,18.773993922122,1165
1166,Zagroble 01,54.346931405588,18.78513604449,1166
1174,Jodowa 01,54.345856958455,18.820414806785,1174
1179,Nadwiślańska 02,54.348947217749,18.803939743633,1179
1180,Ornitologów 01,54.349093876975,18.798669132762,1180
1183,Sierpowa 01,54.337864434021,18.674041239204,1183
1184,Bratki 01,54.334633707825,18.671070101267,1184
1190,Muzeum Narodowe 01,54.344770080855,18.648154681011,1190
1192,Dolna 01,54.343342643399,18.658883754819,1192
1193,Wróbla 01,54.340500281767,18.657876043134,1193
1196,Brama Nizinna 01,54.340541771181,18.647996142303,1196
1201,Zaroślak 02,54.341825629439,18.642383822054,1201
1208,Rejtana 01 ,54.328411310578,18.634045912892,1208
1209,Rejtana 02,54.328150532962,18.633584077135,1209
1211,Gościnna 02,54.323234046351,18.63134424309,1211
1212,Nowiny 01,54.319258513085,18.630327143837,1212
1218,Niegowska 01,54.301408554252,18.6314451557,1218
1219,Węzeł Lipce 02,54.298041569793,18.632576070243,1219
1228,Ptasia 01,54.330170108662,18.626561648344,1228
1235,Dom Pomocy Społecznej 02,54.310011549309,18.619558588978,1235
1237,Zaroślak 04,54.341836645182,18.641567728016,1237
1238,Cmentarna 01,54.340786011105,18.635658239945,1238
1239,Stoczniowców 02,54.343254313617,18.631792940587,1239
1241,Wronki 01,54.342250971339,18.628311796378,1241
1243,Grabowskiego 01,54.341584573239,18.620949478874,1243
1245,Dragana - Szkoła 01,54.339381993367,18.605952987211,1245
1260,Urząd Miejski 02,54.351356244063,18.639237149283,1260
1263,Zakopiańska 03,54.348996042997,18.617043309006,1263
1267,Zielony Stok 02,54.346060084635,18.598193917179,1267
1269,Pagórkowa 02,54.345010412038,18.590638358245,1269
1270,Myśliwska 01,54.344144618314,18.581964500066,1270
1272,Lipowa 01,54.339456289899,18.576362557223,1272
1273,Lipowa 02,54.339972127693,18.576532211246,1273
1278,Jasień Działki 01,54.344322258432,18.542270174016,1278
1279,Jasień Działki 02,54.344624834467,18.541236536762,1279
1281,Węzeł Karczemki 02,54.347322329897,18.528502994338,1281
1283,Karczemki 02,54.35038362156,18.509497535855,1283
1286,Fabryczna 01,54.35306668633,18.494929387736,1286
1288,Transportowców 01,54.359412043829,18.491387498786,1288
1290,Nowatorów 03,54.364049209737,18.49173595,1290
1291,Nowatorów 02,54.365072544186,18.490364954482,1291
1294,Gronostajowa 01,54.342802143612,18.549300361124,1294
1304,Kiełpino - Szkoła 01,54.339764580099,18.508108889567,1304
1310,Cmentarz Łostowicki 02,54.339936618559,18.601289700349,1310
1316,Płocka 03,54.329094224497,18.598552497062,1316
1319,Łódzka 02,54.323135773679,18.602713817819,1319
1324,Przemian 01,54.304584751166,18.604284374443,1324
1339,Kurpińskiego 02,54.355249766465,18.596487931668,1339
1340,Nad Jarem 01,54.353761105166,18.614335720574,1340
1349,Siedlicka 02,54.370053564058,18.611296963956,1349
1353,Jarowa 02,54.364103469432,18.611811761289,1353
1356,Pomorskie Szkoły Rzemiosł 01,54.360888316586,18.609704757108,1356
1362,Sobótki 01,54.374432058993,18.605422248406,1362
1366,Falista 01,54.36763888125,18.592931304515,1366
1373,Budapesztańska 04,54.355736935487,18.578143600898,1373
1393,Potokowa 03,54.374511878348,18.566721093818,1393
1394,Słowackiego Działki 01,54.370578780624,18.55626814545,1394
1395,Słowackiego Działki 02,54.370964207928,18.555767930183,1395
1397,Harfowa 02,54.376547996893,18.524945131325,1397
1398,Agrarna 01,54.376279285874,18.509700452188,1398
1400,Astronautów 01,54.377083796369,18.502952824153,1400
1410,Spadochroniarzy 02,54.385705248355,18.470575565522,1410
1414,Nowatorów 01,54.365273071751,18.49352417821,1414
1415,Rakietowa 02,54.370087606933,18.481236356118,1415
1419,Bysewo 04,54.375436713892,18.462783767121,1419
1422,Ogrody Działkowe "Rębiechowo" II 01,54.377158954083,18.454915905356,1422
1425,Przyrodników 02,54.384249053792,18.432697547592,1425
1431,Potokowa 04,54.373550206336,18.568071440937,1431
1433,Ogrodowa 02,54.369500583184,18.570989891323,1433
1437,Potokowa - Matemblewska 02,54.366529763856,18.563205770679,1437
1453,Bora-Komorowskiego 07,54.408747085436,18.586500601937,1453
1456,Czerwony Dwór 04,54.411458365968,18.587666746306,1456
1460,Park Reagana 01,54.414300008743,18.598982832924,1460
122,Jelitkowo Kapliczna 03,54.421516773069,18.602044852812,122
124,Zaspa SKM 02,54.389296732771,18.594343533292,124
130,Chełm Cienista 01,54.338305596933,18.627000525137,130
133,Bartnicza 01,54.306842608774,18.615237223289,133
135,Równa 01,54.324194208898,18.640885875548,135
141,Westerplatte 01,54.406055084855,18.677024140573,141
142,Górki Wschodnie 01,54.350375514169,18.793045258084,142
146,Lipuska 01,54.338634257941,18.510838958824,146
150,Matemblewo 01,54.366589648054,18.54885345613,150
161,Osowa PKP 03,54.420618043741,18.451960447259,161
178,Kiełpino Górne 01,54.341981978272,18.498835021333,178
194,Zakoniczyn 01,54.319806011476,18.577349188006,194
195,Jaworzniaków 01,54.318041382715,18.568733900388,195
196,Żukowo Urząd Gminy 01,54.341442721786,18.355140132614,196
202,Oliwa 03,54.409604924118,18.566985186297,202
205,Siedlce 03,54.348310449541,18.606480227902,205
207,Stogi Plaża 01,54.373179958768,18.728030388821,207
209,Nowy Port Oliwska 01,54.401615982957,18.674316709643,209
220,Chełm Witosa 01,54.337817926564,18.61776705392,220
314,Wrzeszcz PKP 01,54.380945294665,18.606105618203,314
321,Żabianka SKM 01,54.421260345395,18.57033355978,321
390,Łostowice Świętokrzyska 04,54.322625471,18.605988486549,390
1001,Aksamitna 01,54.358470036655,18.652281962771,1001
1002,Rybaki Górne 01,54.358136199993,18.655918163613,1002
1020,Dworzec Główny 11,54.355179715913,18.645820708928,1020
1022,Dworzec Główny 13,54.354936061477,18.645773081433,1022
1033,Brama Wyżynna 04,54.350367724996,18.645695783594,1033
1037,Żabi Kruk 04,54.346450537098,18.651351678546,1037
1042,Brama Żuławska 03,54.347508531406,18.668818435153,1042
1045,Dickensa 01,54.357386158921,18.690207655627,1045
1050,Sucharskiego 03,54.359928546862,18.690588309841,1050
1061,Łęczycka 01,54.355875402708,18.763661603506,1061
1083,Borska 01,54.348292071477,18.478922909054,1083
1087,Europejskie Centrum Solidarności 01,54.362913548653,18.65010419137,1087
1089,Siennicka 01,54.357450909271,18.679060364728,1089
1092,Przetoczna 02,54.360637362507,18.672738836611,1092
1099,Brama Żuławska 04,54.347434472646,18.66963819774,1099
1101,Miałki Szlak 02,54.348863951976,18.684114903435,1101
1104,Błonia 01,54.351379119498,18.703764286645,1104
1122,Ostroroga 01,54.387694882817,18.6242120223,1122
1124,Klonowicza 02,54.387037325798,18.62871691658,1124
1130,Sobieszewo 01,54.34362509958,18.826256587292,1130
1142,Trałowa - Szkoła 01,54.337109005953,18.910779381631,1142
1149,Przystań 02,54.334434141386,18.933973259963,1149
1153,Uzdrowiskowa 02,54.322267963752,18.931661404146,1153
1155,Świbnieńska III 02,54.314938269641,18.93041478173,1155
1156,Przegalińska 01,54.30988014072,18.925349538656,1156
1158,Benzynowa 01,54.341685766409,18.752800693632,1158
1161,Oczyszczalnia 02,54.342073486329,18.757210645995,1161
1167,Zagroble 02,54.34684526766,18.785340715379,1167
1172,Nowa Gdańska 02,54.397111712057,18.634051853112,1172
1185,Gęsia 01,54.330970221505,18.667108708152,1185
1186,Olszynka - Niwki 01,54.335912731663,18.677258977071,1186
1187,Zawodzie 01,54.339321450193,18.686697751368,1187
1188,Maki 01,54.34510509326,18.674709333539,1188
1194,Urząd Wojewódzki / Marszałkowski 01,54.342839948114,18.645987726545,1194
1199,Mostowa 02,54.335220636917,18.649423008252,1199
1202,Brama Oruńska 01,54.339765209451,18.640455531937,1202
1206,Sandomierska 01,54.332401156719,18.634878157065,1206
1210,Gościnna 01,54.323277507991,18.631726224896,1210
1216,Ukośna 01,54.31161538581,18.629782518889,1216
1233,Uranowa 01,54.326111061223,18.620397273531,1233
1234,Dom Pomocy Społecznej 01,54.309897959269,18.620180117698,1234
1240,Reformacka 01,54.342547105596,18.6305719288,1240
1247,Sikorskiego 03,54.338917634987,18.618826552886,1247
1251,Odrzańska 04,54.345667845032,18.625606799438,1251
1252,Worcella 01,54.341134108055,18.62637595576,1252
1253,Drwęcka (n/ż) 01,54.344916210842,18.618033419368,1253
1255,Chałubińskiego 04,54.342245971749,18.617110841553,1255
1262,Zakopiańska 02.,54.34884692844,18.619052485427,1262
1266,Zielony Stok 01,54.345586205149,18.596067288562,1266
1268,Pagórkowa 01,54.345053618387,18.591451366648,1268
1271,Myśliwska 02,54.343803795738,18.581107453436,1271
1274,Damroki 01,54.338672666947,18.564239000966,1274
1275,Damroki 02,54.338986299736,18.563743505723,1275
1280,Węzeł Karczemki 01,54.347310361664,18.527918947535,1280
1282,Karczemki 01,54.349635146085,18.512436045232,1282
1285,Inżynierska 02,54.352267865429,18.500626330146,1285
1295,Pólnicy 02,54.340495130429,18.559223104228,1295
1296,Unimor 01,54.364013969199,18.472386601897,1296
1297,Unimor 02,54.364227523251,18.47228111103,1297
1299,Centrostal 02,54.365549358787,18.469721201798,1299
1300,Schronisko dla zwierząt "Promyk" 01,54.369131684517,18.462218080751,1300
1301,Instal 02,54.367496544136,18.465690760402,1301
1302,Otomińska 01,54.34411361756,18.510615417197,1302
1305,Otomińska 02,54.343525644063,18.510004703907,1305
1313,Kielecka 02,54.33370627396,18.590899664266,1313
1315,Przemyska 04,54.331959398252,18.595262805018,1315
1320,Niepołomicka 01,54.32020541568,18.595056794097,1320
1322,Przebiśniegowa 01,54.315846036151,18.59374275289,1322
1327,Starogardzka 01,54.302182137745,18.608697209776,1327
1342,Wileńska 01,54.361787094409,18.594766832393,1342
1346,Nowolipie 01,54.349747797796,18.598286547518,1346
1347,Matejki 02,54.374844832826,18.613097501128,1347
1355,Pomorskie Szkoły Rzemiosł 02,54.362084285369,18.611082298291,1355
1358,Schumana 01,54.359264039165,18.604411644127,1358
1359,Schuberta 02,54.357458612618,18.599514311211,1359
1361,Na Wzgórzu - Teatr Leśny 02,54.370310482122,18.597070714257,1361
1364,Na Wzgórzu - Teatr Leśny 01,54.370651809229,18.597959200438,1364
1367,Dobrowolskiego 02,54.360667164476,18.589552384715,1367
1370,Dobrowolskiego 01,54.36053984524,18.589929281711,1370
1379,Brętowo PKM 04,54.36472792622,18.572380107519,1379
1382,Galeria Bałtycka 05,54.382986413177,18.598886618683,1382
1386,Srebrniki 01,54.378908309613,18.580598351677,1386
1388,Trawki 03,54.377970149782,18.574616803873,1388
1391,Potokowa 02,54.37372572139,18.566521232311,1391
1399,Agrarna 02,54.376792786374,18.507575000519,1399
1401,Astronautów 02,54.377256484444,18.50391252952,1401
1403,Szybowcowa 02,54.379022306144,18.488928404233,1403
1404,Firoga 01,54.37976633629,18.483215445695,1404
1416,Rakietowa 01,54.369256141956,18.482749980193,1416
1420,Bysewo 03,54.374976768237,18.463997879521,1420
1423,Ogrody Działkowe "Rębiechowo" I 02,54.378871762616,18.448326208572,1423
1426,Przyrodników 01,54.384473465537,18.431836376665,1426
1440,Podkarpacka 02,54.377242463437,18.565712547335,1440
1443,Kopalniana 01,54.390285743632,18.61700709893,1443
1448,Czarny Dwór 02,54.406772010357,18.616497743799,1448
1450,Lwowska 01,54.389684879128,18.622094476399,1450
1458,Jagiellońska 01,54.412987029524,18.591738452573,1458
1461,Biały Dwór 02,54.409120915693,18.604818291844,1461
1462,Biały Dwór 01,54.40850395917,18.605439892824,1462
1463,Olsztyńska 02,54.406351396667,18.60433253629,1463
1464,Olsztyńska 01,54.406266489653,18.604584053784,1464
1466,Opolska 01,54.404944782638,18.59778831123,1466
1478,Leszczyńskich 01,54.399987726753,18.608016298726,1478
1480,Rzeczypospolitej 01,54.39603803215,18.603778305269,1480
1502,Władysława IV 02,54.399878835602,18.675139193453,1502
1505,Karwieńska 02,54.411391140171,18.546858575804,1505
100,Targ Rybny 01,54.353372604844,18.657820830395,100
101,Port Lotniczy 01,54.382631612416,18.467622660464,101
118,Oliwa PKP 02,54.410948497356,18.572993437591,118
119,Oliwa PKP 03,54.411662177226,18.574060965136,119
120,Oliwa Pętla Tramwajowa 07,54.40925628675,18.567082895703,120
128,Migowo 03,54.352817209276,18.576453155056,128
143,Przegalina 01,54.311238663189,18.917071600416,143
147,Bysewo 05,54.374968686611,18.463613398929,147
158,Sztutowska 01,54.353945634401,18.71868830277,158
159,Jelitkowo 06,54.423437310172,18.593746331061,159
167,Chełm - Więckowskiego 01,54.333923459573,18.615854026563,167
176,Kukawka 01,54.444030078338,18.457586488617,176
191,Łostowice Świętokrzyska 06,54.323348106842,18.606161813134,191
199,Jasień Pólnicy 01,54.34110710622,18.561033165075,199
206,Stogi 04,54.362646467691,18.716250956139,206
208,Nowy Port Góreckiego 01,54.400050460557,18.670984786667,208
334,Chełm Cienista 03,54.337563424907,18.626289444689,334
1000,Wały Piastowskie  01,54.358384373199,18.647422894646,1000
1009,Wały Piastowskie 02,54.35938322942,18.647473540957,1009
1017,Dworzec Główny 12,54.355303011123,18.645228793906,1017
1019,Dworzec Główny 10,54.355537685943,18.645276932284,1019
1024,Tamka 01,54.35912242319,18.70534865369,1024
1026,Hucisko 03,54.351712523042,18.644126061155,1026
1036,Chłodna 02,54.343327655416,18.662746641538,1036
1038,Żabi Kruk 03,54.346669641103,18.651985470353,1038
1044,Elbląska 05,54.349135471838,18.67020362737,1044
1054,Stogi 06,54.361559067962,18.717219504987,1054
1057,Kępna 01,54.359130696992,18.745845277099,1057
1064,Łęczycka 02,54.356011395508,18.763238657998,1064
1065,Budzysza 01,54.360862898287,18.691967426664,1065
1069,Sucharskiego - PKP 01,54.376569090344,18.682647462939,1069
1072,Ku Ujściu 02,54.377388235414,18.679429056113,1072
1093,Przejazd Kolejowy 01,54.366200236654,18.673578809237,1093
1094,Przejazd Kolejowy 02,54.365581889974,18.673213506825,1094
1097,Kujawska 01,54.376725780704,18.670242409164,1097
1103,Węzeł Elbląska 02,54.348935438952,18.692066784931,1103
1107,Tarcice 02,54.35115978494,18.710670954212,1107
1109,Michałki 02,54.347012773173,18.71764139981,1109
1113,Rejenta 01,54.342460760205,18.605712443905,1113
1118,Soplicy 01,54.345049211577,18.607039116295,1118
1119,Soplicy 02,54.344873609396,18.60815721203,1119
1123,Klonowicza 01,54.38723690385,18.628351132093,1123
1125,Leszczyńskich 03,54.399936382951,18.606786648827,1125
1126,Meissnera 01,54.401864285474,18.602914626528,1126
1127,Meissnera 02,54.402784537431,18.60398579736,1127
1128,Olsztyńska 03,54.405652341779,18.603988048974,1128
1132,Kanałowa 01,54.342795939988,18.839147507612,1132
1143,Trałowa - Szkoła 02,54.337060759667,18.909551155062,1143
1144,Kempingowa 01,54.336551717911,18.916499438276,1144
1148,Przystań 01,54.334356729142,18.934177112697,1148
1152,Uzdrowiskowa 01,54.322595516004,18.93189101279,1152
1159,Benzynowa 02,54.341664551189,18.753109564377,1159
1162,Naftowa 01,54.342868107253,18.769522380337,1162
1175,Jodowa 02,54.346196935508,18.819827486829,1175
1176,Tęczowa 01,54.348292000893,18.809929829135,1176
1178,Nadwiślańska 01,54.348895596998,18.803573180603,1178
1195,Urząd Wojewódzki / Marszałkowski 02,54.342752549429,18.646115814362,1195
1198,Mostowa 01,54.336346699646,18.648620310392,1198
1203,Brama Oruńska 02,54.339405936566,18.639553004618,1203
1205,Stare Szkoty 02,54.335614877892,18.636016627061,1205
1215,Ukośna 02,54.310945751746,18.629559650749,1215
1221,Ostróżek 02,54.290362776185,18.636627945235,1221
1227,Ptasia 02,54.330325447049,18.628060120143,1227
1230,Małomiejska 01,54.329374148977,18.618562974091,1230
1231,Platynowa 03,54.326298209889,18.611219753868,1231
1232,Platynowa 01,54.327313210157,18.61117628537,1232
1236,Zaroślak 03,54.341859712934,18.641827970729,1236
1246,Cieszyńskiego 03,54.338296776601,18.60970844878,1246
1248,Pohulanka 03,54.348415103502,18.63686669392,1248
1249,Pohulanka 04,54.348928153428,18.636898798713,1249
1250,Odrzańska 03,54.345145208528,18.625544614737,1250
1256,Węzeł Elbląska 01,54.349010392011,18.690816105623,1256
1264,Emaus 01,54.347458047406,18.604298477086,1264
1277,Źródlana 02,54.341981973933,18.553626617341,1277
1284,Inżynierska 01,54.351553823659,18.502177932699,1284
1289,Transportowców 02,54.358087051186,18.4912219892,1289
1292,Kokoszki - Poczta 01,54.363854790595,18.48110992072,1292
1293,Kokoszki - Poczta 02,54.363921123284,18.479550968851,1293
1298,Centrostal 01,54.366360386161,18.4676698489,1298
1303,Schronisko dla zwierząt "Promyk" 02,54.369490747394,18.461764808464,1303
1306,Lawendowe Wzgórze 03,54.328399824469,18.569722299121,1306
1309,Emaus 03,54.346675369183,18.602912932772,1309
1317,Płocka 04,54.329224740138,18.597883482681,1317
1323,Przebiśniegowa 02,54.316003376299,18.593518294623,1323
1325,Przemian 02,54.304484144928,18.604197985897,1325
1326,Starogardzka 03,54.302067681979,18.608365676612,1326
1328,Hevelianum 01,54.352763473835,18.634893354279,1328
1329,Hevelianum 02,54.352467564258,18.635849152817,1329
1330,Płowce 01,54.355914940444,18.630110228823,1330
1333,Wyczółkowskiego 02,54.356183201378,18.617258243949,1333
1334,Wagnera 01,54.355731606685,18.613513497402,1334
1338,Kurpińskiego 01,54.355240689071,18.596934808788,1338
1343,Park Naukowo - Technologiczny 01,54.354579867634,18.595803673285,1343
1345,Jaśkowa Dolina 05,54.377854384965,18.606639745746,1345
1348,Uphagena 01,54.376683320845,18.615146690239,1348
1350,Siedlicka 01,54.370069239213,18.612543192295,1350
1357,Schumana 02,54.359224887267,18.603798213686,1357
1378,Brętowo PKM 03,54.364097800693,18.573679651129,1378
1380,Kolumba 03,54.360334668727,18.577888400109,1380
1381,Kolumba 04,54.360117030331,18.577347056445,1381
1389,Trawki 02,54.377417813943,18.572632023885,1389
1390,Potokowa 01,54.374643523836,18.56879212237,1390
1392,Rybacka 01,54.424281907587,18.57753959358,1392
1402,Szybowcowa 01,54.378814210823,18.488432895572,1402
1405,Wrzeszczańska 01,54.390687193316,18.633297139565,1405
1407,Wojnarskiego 01,54.384565112101,18.48614083202,1407
1413,Nowatorów 04,54.365756527788,18.490400207234,1413
1417,Kosmonautów 02,54.37282597652,18.473323309286,1417
1421,Ogrody Działkowe "Rębiechowo" II 02,54.377691822535,18.453327502443,1421
1424,Ogrody Działkowe "Rębiechowo" I 01,54.378522833183,18.44925649414,1424
1432,Chrzanowskiego 01,54.379955158596,18.586635386456,1432
1434,Ogrodowa 01,54.371393043077,18.570323828833,1434
1439,Podkarpacka 01,54.377979089506,18.566130938904,1439
1445,Drzewieckiego 01,54.395442966603,18.612764060311,1445
1451,Mickiewicza 06,54.383399607715,18.62065599976,1451
1452,Biała 01,54.378018679482,18.6153926438,1452
1454,Bora-Komorowskiego 04,54.408961247098,18.587320236443,1454
1457,Jagiellońska 02,54.413123334851,18.593163867792,1457
1459,Park Reagana 02,54.414049297077,18.598581331193,1459
1467,Kołobrzeska 06,54.404282110522,18.593404487378,1467
1468,Kołobrzeska 05,54.404341344305,18.594572153712,1468
1470,Krynicka 01,54.403306111187,18.587744804714,1470
1475,Przymorze Wielkie 02,54.41024370353,18.603411985696,1475
1479,Zaspa - Szpital 02,54.402336611659,18.609959749788,1479
1483,Rzeczypospolitej 02,54.396339667362,18.603575837349,1483
1492,Dworska 04,54.404407042104,18.62558793916,1492
1503,Cystersów 02,54.408996117648,18.555539640152,1503
1504,Cystersów 01,54.408747474965,18.557912393491,1504
102,Port Lotniczy 02,54.382731667792,18.467678105692,102
103,Port Lotniczy 03,54.382795163309,18.467704998868,103
115,Wrzeszcz PKP 04,54.381360994736,18.604402704054,115
125,Nowy Port Szaniec Zachodni 02,54.396121791487,18.672840506793,125
132,Orunia Górna 01,54.325188900112,18.618312716366,132
137,Olszynka - Szkoła 02,54.341838317545,18.668939423559,137
139,Górki Zachodnie 01,54.354795353842,18.782096536528,139
152,Osowa Przesypownia 01,54.415011293584,18.458504879287,152
153,Niedźwiednik 01,54.38002931415,18.559479696185,153
154,Oliwa ZOO 01,54.413526419218,18.535171030335,154
163,Maćkowy 02,54.307394549941,18.61314527218,163
171,Pruszcz Gdański Komarowo 01,54.247448263764,18.651056752382,171
172,Smęgorzyno 01,54.342130089266,18.473160872626,172
175,Św. Wojciech 01,54.284788793509,18.637992000536,175
203,Zaspa 03,54.39987504029,18.595557800698,203
204,Zaspa 04,54.399277581755,18.594899411517,204
213,Strzyża PKM 03,54.391167663678,18.578213068758,213
214,Przeróbka 03,54.357798080264,18.684027772036,214
310,Muzeum II Wojny Światowej 01,54.357384406335,18.659331801346,310
325,Nowy Port Szaniec Zachodni 01,54.396266577248,18.673356124763,325
359,Jelitkowo 05,54.423136615393,18.593995206557,359
1004,Toruńska 01,54.3457089874,18.645592882145,1004
1014,Dworzec Główny 05,54.355433250111,18.645913945363,1014
1015,Dworzec Główny 14,54.355420348535,18.645252863031,1015
1025,Hucisko 04,54.351985544007,18.644756810792,1025
1030,Brama Wyżynna 03,54.350560819243,18.646377261003,1030
1031,Cygańska Góra 03,54.359135320303,18.617887733975,1031
1035,Pomorskie Szkoły Rzemiosł 04,54.360647998013,18.613459275713,1035
1043,Bajki 01,54.356344809079,18.6818470167,1043
1047,Kaczeńce - Sienna 01,54.358690356243,18.697768999707,1047
1058,Steczka 02,54.359860309135,18.740156268367,1058
1059,Baza Manipulacyjna 01,54.353666339413,18.757009970245,1059
1063,Łowicka 01,54.355054637984,18.770801269411,1063
1066,Łowicka 02,54.355201341518,18.77047012043,1066
1079,Przystań Żeglugi 01,54.404065946454,18.681574482339,1079
1088,Żarnowiecka 02,54.345570273549,18.678791491455,1088
1091,Przetoczna 01,54.360702001758,18.672827539246,1091
1098,Kujawska 02,54.376479759138,18.670071558365,1098
1100,Mostek 01,54.349363089677,18.67454577863,1100
1105,Błonia 02,54.351224791119,18.704157630045,1105
1114,Zosi 02,54.343543904787,18.611373372375,1114
1116,Domeyki 01,54.345102851252,18.611559905776,1116
1120,Chrobrego 02,54.387961386643,18.617665559421,1120
1121,Chrobrego 01,54.388156102012,18.616144728811,1121
1131,Radosna 01,54.344595683861,18.829236491962,1131
1133,Kanałowa 02,54.342738579315,18.839458232818,1133
1135,Pole Namiotowe 02,54.342313545231,18.864559008432,1135
1138,Orlinki 01,54.340253968598,18.886450566348,1138
1139,Orlinki 02,54.340125981284,18.886841750335,1139
1140,Kwiatowa 01,54.339402971459,18.893817191185,1140
1141,Kwiatowa 02,54.339180458056,18.894459324567,1141
1146,Węgorzowa 01,54.336149562657,18.925503478205,1146
1147,Węgorzowa 02,54.335997937969,18.92609566717,1147
1151,Świbnieńska I 02,54.329416428977,18.932825244797,1151
1157,Przegalińska 02,54.309933490672,18.924270726977,1157
1170,Cedrowa 02,54.339163645409,18.586426393472,1170
1173,Nowa Gdańska 01,54.396933023943,18.634108361043,1173
1177,Tęczowa 02,54.348161701169,18.810675378923,1177
1181,Ornitologów 02,54.349272935136,18.797643927865,1181
1191,Muzeum Narodowe 02,54.344468071702,18.648802800932,1191
1197,Brama Nizinna 02,54.340970415569,18.648310146909,1197
1200,Zaroślak 01,54.341624500982,18.642672285619,1200
1204,Stare Szkoty 01,54.335906500624,18.636676781013,1204
1207,Sandomierska 02,54.332400192033,18.634370586651,1207
1213,Nowiny 02,54.317587522494,18.629469839184,1213
1214,Urząd Dozoru Technicznego 01,54.315805305835,18.629357069316,1214
1217,Niegowska 02,54.302789559272,18.630812460318,1217
1222,Ostróżek 01,54.291792325441,18.636177232398,1222
1223,Św. Wojciech 02,54.286323144142,18.637842709524,1223
1229,Małomiejska 02,54.329278464144,18.617814812104,1229
1244,Dragana - Kładka 01,54.341030532902,18.611565322084,1244
1254,Chałubińskiego 03,54.342208182733,18.61792850368,1254
1261,Bema 01,54.350729130124,18.632009293736,1261
1265,Siedlce 06,54.348584410626,18.606695130872,1265
1276,Zwierzyniecka 01,54.341550316386,18.555837118344,1276
1287,Kokoszki 02,54.355138872322,18.490385862465,1287
1307,Kiełpino - Szkoła 02,54.339579287075,18.507843158833,1307
1308,Szkoła Podstawowa nr 6 01,54.326391858057,18.568671818367,1308
1311,Cmentarz Łostowicki 01,54.340129277922,18.601032308445,1311
1312,Kielecka 01,54.333946635364,18.592131655936,1312
1314,Przemyska 03,54.333442353819,18.596145366635,1314
1318,Łódzka 01,54.323112804701,18.602915084276,1318
1321,Niepołomicka 02,54.320368884938,18.595139523896,1321
1331,Płowce 02,54.356006851366,18.630212676517,1331
1332,Wyczółkowskiego 01,54.357124685644,18.619866534385,1332
1335,Wagnera 02,54.355929474127,18.612609318408,1335
1336,Otwarta 01,54.355984932762,18.603617457325,1336
1337,Otwarta 02,54.356089144054,18.602980335086,1337
1344,Park Naukowo - Technologiczny 02,54.354627310153,18.595477689936,1344
1351,Kręta 02,54.366973117531,18.61281524606,1351
1352,Kręta 01,54.366668725198,18.612879095105,1352
1354,Jarowa 01,54.364543314279,18.612232676792,1354
1360,Schuberta 01,54.357780737567,18.600342093535,1360
1363,Falista 02,54.367869809159,18.593241108839,1363
1365,Strzelnica 02,54.365518266849,18.588929478157,1365
1368,Strzelnica 01,54.365190637898,18.589179603859,1368
1369,Piecewska 02,54.358367295294,18.586931845052,1369
1372,Piecewska 01,54.358239369124,18.587277979818,1372
1376,Budapesztańska 03,54.355639984001,18.57868800827,1376
1383,Galeria Bałtycka 06,54.382181821664,18.596854421614,1383
1385,Chrzanowskiego 02,54.380130996194,18.586886877005,1385
1387,Srebrniki 02,54.378878385348,18.579106293949,1387
1396,Harfowa 01,54.37604416658,18.523173732382,1396
1406,Wrzeszczańska 02,54.390664176696,18.633498722198,1406
1408,Ikara 01,54.388979077939,18.482250867991,1408
1409,Radiowa 02,54.390027020552,18.475608849218,1409
1411,Agrarna 03,54.376027912137,18.507975543972,1411
1418,Kosmonautów 01,54.372233818227,18.474668525578,1418
1435,Dolne Młyny 02,54.366647924879,18.567725095822,1435
1436,Dolne Młyny 01,54.366484456626,18.568535331119,1436
1438,Potokowa - Matemblewska 01,54.36569149907,18.561762076573,1438
1441,Kilińskiego 02,54.385363945199,18.603168291317,1441
1442,Legionów 04,54.38742577273,18.611489082799,1442
1444,Ciołkowskiego 01,54.394207645262,18.617580804453,1444
1446,Korczaka 01,54.399245038224,18.60864502605,1446
1447,Zaspa - Szpital 01,54.40369680826,18.611914660214,1447
1449,Grudziądzka 05,54.396795307687,18.62206822495,1449
1455,Czerwony Dwór 05,54.412381518304,18.58887636723,1455
1472,Obrońców Wybrzeża 01,54.408858279629,18.594323057424,1472
1474,Przymorze Wielkie 01,54.410526460938,18.603164307514,1474
1488,Piastowska 05,54.416782545134,18.586876135101,1488
1501,Nowy Port Zajezdnia 01,54.397927563223,18.673246677534,1501
1506,Karwieńska 01,54.410727047373,18.548686062339,1506
1518,Niedziałkowskiego 01,54.43129232459,18.463202230856,1518
1523,Nowy Świat 02,54.418723761292,18.450382288792,1523
1525,Tysiąclecia 02,54.417372257553,18.592097857004,1525
1547,Koziorożca 02,54.420069416765,18.469044696565,1547
1550,Konkordii 01,54.424483992363,18.457085868196,1550
1507,Rynarzewo 02,54.421842560645,18.536953414317,1507
1508,Rynarzewo 01,54.421400463571,18.538197824954,1508
1509,Osowa Obwodnica 02,54.42887655073,18.496055948849,1509
1511,Sopocka 02,54.430100890971,18.476274791412,1511
1512,Sopocka 01,54.429813087033,18.478420406498,1512
1516,Barniewicka 01,54.434213975732,18.467478397112,1516
1520,Biwakowa 01,54.428152268793,18.460944671786,1520
1522,Osowa PKP 04,54.421369776168,18.453501701654,1522
1526,Tysiąclecia 01,54.417323755356,18.593272208182,1526
1529,Poznańska 02,54.414027497631,18.579932463523,1529
1533,Oliwa Pętla Tramwajowa 06,54.409298407957,18.567388633708,1533
1535,Sarnia 01,54.416114824075,18.558584100656,1535
1542,Brama Oliwska 03,54.362092146356,18.642100214503,1542
1549,Zeusa 02,54.422740616088,18.461818991543,1549
1551,Konkordii 02,54.424517635773,18.4569758596,1551
1559,Startowa 03,54.396870453049,18.598167890745,1559
1561,Karczemki Szkoła 01,54.352494963248,18.510739544494,1561
1562,Karczemki Szkoła 02,54.352677412748,18.51217522957,1562
1563,Maciejkowa 01,54.353882340286,18.505222578461,1563
1565,Św. Brata Alberta 01,54.356081111639,18.503734800187,1565
1566,Św. Brata Alberta 02,54.356128868744,18.503870430967,1566
1573,Myśliborska 02,54.441900490607,18.451240256331,1573
1574,Myśliborska 01,54.441702360863,18.452501931333,1574
1575,Siedleckiego 02,54.4295245486,18.469355991952,1575
1576,Siedleckiego 01,54.429873155025,18.469689150696,1576
1580,al. Płażyńskiego 06,54.401262400234,18.622025420265,1580
1593,Jaśkowa Dolina 04,54.377588254422,18.608179795343,1593
1595,Teatr Miniatura / Radio Gdańsk 04,54.375168273251,18.61763673612,1595
1600,Uniwersytet Medyczny 03,54.367666037836,18.632928183757,1600
1608,Zajezdnia 03,54.388531841295,18.581710987507,1608
1613,Kołobrzeska 03,54.40472384913,18.59031205244,1613
1616,Żwirki i Wigury 03,54.392171966113,18.606021769575,1616
1617,Kościuszki 04,54.387987433691,18.622177263219,1617
1619,Obrońców Westerplatte 04,54.408244799058,18.562843064807,1619
1627,Zamenhofa 04,54.386814935374,18.584861811748,1627
1639,Jednorożca 02,54.423603750692,18.478555155925,1639
1640,Marynarki Polskiej 05,54.397879740623,18.666578158461,1640
1644,Polsat Plus Arena Gdańsk 03,54.38701439566,18.648680561357,1644
1653,Drzewieckiego 02,54.394983640084,18.613175894217,1653
1654,Mickiewicza 05,54.383661277154,18.622073227019,1654
1656,Świbnieńska II 01,54.326192071728,18.932464100829,1656
1657,Świbnieńska II 02,54.325873502104,18.932234017622,1657
1658,Bysewo 01,54.373736135576,18.462288132865,1658
1660,Dworkowa 01,54.34445016735,18.681316547527,1660
1667,Górskiego 02,54.418765796138,18.565209174582,1667
1687,Przywidzka 02,54.324337660825,18.547584200777,1687
1691,Kliniczna 03,54.375606502719,18.626188488479,1691
1703,Kokoszki 01,54.353978054113,18.490333516078,1703
1710,Modra III 01,54.326364359106,18.687486794066,1710
1732,Terminal - Cargo 01,54.382375957317,18.476017043218,1732
1734,Platynowa 02,54.326728009408,18.609318405441,1734
1741,Beniowskiego 02,54.409400563555,18.576937816578,1741
1743,Świętokrzyska 01,54.324456695502,18.605851332462,1743
1745,Góralska 01,54.375636644613,18.564098306795,1745
1748,Kopeckiego 02,54.337160461098,18.613158980052,1748
1749,Radiowa 01,54.389838179673,18.476036373887,1749
1753,Sikorskiego 05,54.338219151146,18.61714383688,1753
1758,Falowa 01,54.343074508282,18.836132639995,1758
1759,Falowa 02,54.343025623164,18.835412072009,1759
1761,Gospody 01,54.419847681254,18.582811276731,1761
1769,Olszyńska 02,54.333611885081,18.656837114395,1769
1785,Keplera 02,54.416450247772,18.467942115404,1785
1790,Wieżycka 01,54.318049955837,18.587063307706,1790
1798,Łapińska 01,54.339418687128,18.50225248486,1798
1800,Liliowa 01,54.315274014457,18.591208295631,1800
1820,Norblina 01,54.388074971135,18.571494438622,1820
1835,Żuraw 01,54.351040872461,18.657184027583,1835
1836,Katarzynki 01,54.354255480929,18.653753619422,1836
1837,Heweliusza 01,54.356331041728,18.652311630854,1837
1838,Miedza 02,54.335229686105,18.661913961246,1838
1844,Sąsiedzka 01,54.369421364285,18.503248631822,1844
1847,Suchanino 02,54.354792967716,18.60742689027,1847
1851,Zacna 02,54.350713969085,18.56041781672,1851
1853,Staw Wróbla 02,54.350216448256,18.554937847269,1853
1859,Knyszyńska 01,54.313921820265,18.603203585406,1859
1861,Osiedle Jary 02,54.335492785357,18.601148530606,1861
1865,Płocka 06,54.329015524342,18.600018323481,1865
1866,Płocka 05,54.328869405831,18.599903784457,1866
1869,Miedza 01,54.335529002411,18.66205080721,1869
1870,Zagony 01,54.336335071852,18.658651344362,1870
1884,Marsa 01,54.420891577619,18.478690897305,1884
1894,Bażyńskiego 05,54.398994630583,18.568661209319,1894
1896,Bora-Komorowskiego 05,54.406889477424,18.589815161907,1896
1901,Hokejowa 02,54.310524330364,18.588810649138,1901
1902,Hokejowa 01,54.309921856269,18.588353906233,1902
1906,Telewizyjna 01,54.398819713857,18.485099309109,1906
1908,Zakład Utylizacyjny 01,54.322902320435,18.540672010759,1908
1920,Centrum Medycyny Inwazyjnej 01,54.366270179295,18.619553004572,1920
1924,Cmentarz Srebrzysko 01,54.377970105445,18.580884548108,1924
1925,Cmentarz Srebrzysko 02,54.378148591559,18.579026058371,1925
1931,Szczęśliwa 01,54.34913388882,18.528286507638,1931
1936,Przegalińska - Schronisko 01,54.313899804804,18.911371487152,1936
1939,Dulkowa 02,54.315790850434,18.901204729761,1939
1941,Komary 02,54.315716851025,18.893351621273,1941
1943,Sobieszewska Pastwa 2 02,54.312543799256,18.873388734483,1943
1945,Marynarska 02,54.315374513107,18.86926046674,1945
1950,Wieniecka 01,54.324365574014,18.854647084057,1950
1951,Wieniecka 02,54.32470974163,18.85327581575,1951
1952,Sobieszewko 01,54.328525834751,18.843956403058,1952
1957,Osiedle Świętokrzyskie 01,54.313706812021,18.571342077321,1957
1959,Elfów 01,54.315643895446,18.56976716443,1959
1965,Czermińskiego 02,54.322625514917,18.554468351408,1965
1971,Jabłoniowa Osiedle 02,54.331726981569,18.563526796144,1971
1985,Jeleniogórska 02,54.328853921102,18.582923588007,1985
1994,Żaglowa - AmberExpo 03,54.384142255153,18.641544307985,1994
1997,al. Płażyńskiego 04,54.40108527191,18.623530282578,1997
1998,al. Płażyńskiego 03,54.403139433126,18.621932189161,1998
2005,Brama Oliwska 01,54.362118147645,18.641590732821,2005
2006,Brama Oliwska 02,54.361922095845,18.641678937666,2006
2020,Jaśkowa Dolina 02,54.378224070016,18.606695229114,2020
2028,Zamenhofa 02,54.386902830459,18.585210921036,2028
2029,Zamenhofa 01,54.386914323969,18.584886779062,2029
2034,Strzyża PKM 02,54.391112886107,18.577723343256,2034
2036,Uniwersytet Gdański 02,54.395719099722,18.571628182397,2036
2045,Oliwa 01,54.409958835644,18.567149164917,2045
2050,Subisława 02,54.416773532688,18.573419888707,2050
2052,Pomorska - Osiedle 02,54.418265811216,18.577894535381,2052
2057,Helska 01,54.421586558586,18.588397476701,2057
2061,Plac Solidarności 01,54.360637117356,18.647694326707,2061
2063,Stocznia SKM 01,54.36420906631,18.643241246816,2063
2064,Stocznia SKM 02,54.364576002553,18.642696811946,2064
2065,Stocznia Północna 01,54.371945034387,18.633836750637,2065
2076,Mickiewicza 02,54.38290092806,18.621809171078,2076
2080,Legionów 02,54.386970244401,18.610729991159,2080
2085,Jana Pawła II 01,54.394636898493,18.601579909985,2085
2087,Startowa 01,54.397028811094,18.597542357952,2087
2088,Startowa 02,54.396704536071,18.597961892787,2088
2090,Zaspa 02,54.399213806011,18.594856921155,2090
2093,Bora-Komorowskiego 01,54.407911959062,18.589246604088,2093
2095,Czerwony Dwór 01,54.411860531394,18.587997613179,2095
2097,Piastowska 01,54.415572491444,18.587055139466,2097
2099,Pomorska 01,54.419543184306,18.58421659173,2099
2102,Brama Wyżynna 01,54.350494061536,18.646181016647,2102
2105,Żabi Kruk 01,54.346510101911,18.651640649139,2105
2121,Sucharskiego 02,54.359763517209,18.690890031169,2121
2124,Kaczeńce 02,54.362993820905,18.698575004235,2124
2132,Nowe Ogrody 02 ,54.352159889498,18.642176712471,2132
2133,Urząd Miejski 01,54.351459166648,18.642201459514,2133
2136,Dworzec PKS 02,54.356677412687,18.643333943396,2136
2139,Powstańców Warszawskich 02,54.351137114612,18.63631030385,2139
2140,Powstańców Warszawskich 01,54.351079978917,18.636605986588,2140
2166,Marynarki Polskiej 02,54.398366194302,18.666165356248,2166
2172,Kościuszki 01,54.387991071224,18.622361894228,2172
2173,Kościuszki 02,54.388144633623,18.622399222849,2173
2176,Grudziądzka 01,54.396161092567,18.62227439462,2176
2183,Sternicza 01,54.40463619465,18.634512302166,2183
2188,Mazurska 01,54.408481220367,18.63208709879,2188
2189,Brzeźno Dom Zdrojowy 03,54.407126222665,18.638637649933,2189
2198,Rybołowców 02,54.402678063288,18.665535216271,2198
2214,Odrzańska 01,54.345382405929,18.626177209829,2214
2215,Chałubińskiego 02,54.341618739764,18.617670265603,2215
2216,Chałubińskiego 01,54.341773214693,18.617753645585,2216
2217,Sikorskiego 02,54.33851464223,18.618449845101,2217
2218,Sikorskiego 01,54.338704428378,18.618500410103,2218
2224,Cebertowicza 01,54.338391934738,18.60544129851,2224
2229,Płocka 02,54.328911160824,18.598840033725,2229
5225,Pruszcz Gdański Radunica 02,54.278731977943,18.639490817115,5225
5604,Pruszcz Gdański Chopina 01,54.262794447622,18.636363049347,5604
5815,Pruszcz Gdański Emilii Plater 01,54.260079220303,18.660304242247,5815
5818,Pruszcz Gdański Reymonta 02,54.259589325872,18.666566266288,5818
5830,Pruszcz Gdański Niemcewicza 02,54.261352792159,18.652753707561,5830
5831,Pruszcz Gdański Rondo Kociewskie 01,54.24121733654,18.615771361498,5831
5832,Pruszcz Gdański Waląga 01,54.261734127941,18.63868109965,5832
5835,Pruszcz Gdański Żwirki i Wigury 01,54.258806738605,18.650349446491,5835
7428,Rębiechowo Piaskowa 02,54.386471649393,18.423932717125,7428
7983,Banino Pszenna 02,54.393386367404,18.382210405237,7983
7990,Małkowo 02,54.370871953946,18.363102711755,7990
7993,Żukowo Słoneczna 01,54.359631534675,18.364638997141,7993
8100,Gdynia Karwiny Nowowiczlińska 01,54.473346512794,18.476868981297,8100
8229,Gdynia Paprykowa 02,54.467839559503,18.465462728725,8229
8230,Gdynia Szafranowa 02,54.46536460241,18.460198747546,8230
8231,Gdynia Leśna Polana 02,54.462236132103,18.453371039434,8231
8246,Gdynia Paprykowa 01,54.468308602553,18.466822801584,8246
8250,Chwaszczyno Wiejska 01,54.446040930429,18.423092855103,8250
8339,Gdynia Karwiny PKM 05,54.467923800914,18.50927463886,8339
9070,Sopot Chopina 90,54.442468891719,18.570404120749,9070
9166,Marynarki Polskiej 91,54.398508681726,18.666095634851,9166
14433,Dwór Ferberów 01,54.30569266792,18.630322831255,1242
14449,Meczet 01,54.390621667498,18.572514724697,1819
14450,Meczet 02,54.390113557085,18.573176313987,1818
14460,Zajezdnia NOWY PORT T2,54.397108531207,18.673662810791,692
14476,Sopot 3 Maja 02,54.43381246755,18.561525343894,4044
14480,Sopot Smolna 01,54.427672062538,18.562846095844,4039
14484,Sopot Sikorskiego 04,54.442336552784,18.556715378707,4047
14486,Sopot Okrężna 02,54.447064311301,18.551343221598,4051
14487,Sopot Hotel "Marina" 01,54.429577222407,18.587881741038,4057
14502,Sopot Malczewskiego 02,54.449544434882,18.55528325904,4076
14504,Sopot Wybickiego 01,54.437317303544,18.55746150938,4078
14505,Sopot Kochanowskiego 01,54.434201094895,18.558957781238,4079
14506,Sopot Młyńska 02,54.454707100375,18.559850960119,4074
14507,Sopot Plac Kusocińskiego 02,54.452804148754,18.563111510907,4073
14508,Sopot Korty Tenisowe 02,54.45019661268,18.564870860431,4072
14511,Sopot Grunwaldzka 01,54.439245385684,18.57372585393,4069
14513,Sopot Bohaterów Monte Cassino 01,54.442197001202,18.560039859185,4005
14514,Sopot Goyki 01,54.447024590313,18.559151083582,4007
14522,Focha 02,54.358675432436,18.623286328709,1881
14528,Źródlana 01,54.341903282504,18.553292790725,1258
14531,Pruszcz Gdański Wysockiego 02,54.263527589037,18.674974271196,5866
14534,Jasieńska 03,54.349741321802,18.549687510728,1871
14541,Kolumba 02,54.360414583432,18.577391111155,2267
14548,Gronostajowa 02,54.345130553923,18.547530674127,1876
14550,Biblioteka Główna UG 02,54.397277949956,18.577175065175,1679
14555,Osowa PKP 01,54.420955562254,18.452617823425,363
14556,Siedlce 04,54.348017342831,18.607112810546,362
14557,Siedlce 05,54.348503763146,18.607161480924,162
14564,Port Lotniczy 09,54.383086936326,18.467471396652,302
14573,Pruszcz Gdański Cyprysowa 02,54.261505397458,18.625211453656,5856
14575,Pruszcz Gdański Cicha (Cmentarz) 01,54.262476210431,18.625662396767,5857
14576,Pruszcz Gdański Cicha (Cmentarz) 02,54.262599207516,18.625517116042,5858
14582,Banino Borowiecka 01,54.39303408689,18.402938789811,7980
14585,Jaworzniaków 02,54.317809777825,18.568839827489,395
14588,Pruszcz Gdański Słowackiego 01,54.262470541319,18.660767673682,5893
14598,Pruszcz Gdański 49 Baza Lotnicza 01,54.255974105783,18.657696258407,5810
14601,Pruszcz Gdański Aeroklub Gdański 01,54.255016598456,18.672305806535,5805
14602,Ku Ujściu 05,54.378913954768,18.677895374672,1986
14611,Kowale Osiedle Olimp 03,54.309372886768,18.566846756475,6019
14612,Kowale Plac Afrodyty 01,54.308351410589,18.567014658248,6020
14617,Kowale Kasztelańska 01,54.30589757296,18.553708104759,6026
14619,Kowale Szlachecka 02,54.30324783426,18.546302268047,6027
14622,Bogatka II 01,54.32266146932,18.776444636384,5112
14625,Bogatka I 02,54.328239792645,18.783541642825,5115
14635,Przejazdowo Łąkowa 02,54.322052531462,18.750395910448,5109
14640,Wiślinka Pocztowa 01,54.3385329937,18.80172588572,5124
14644,Wiślinka Piaskowa 02,54.33934547654,18.823728632998,5119
14645,Wiślinka Piaskowa 01,54.338682659267,18.823363663817,5118
14648,Wiślinka Szkolna 01 ,54.330393935466,18.800052951195,5116
14649,Wiślinka Szkolna 02 ,54.330590328986,18.801949752056,5117
14652,Jagiełły 02,54.304386403963,18.611505477291,1966
14653,Jana z Kolna 01,54.36165594251,18.645542568934,305
14664,Stogi Plaża 02,54.372588993115,18.728632730741,287
14666,Pruszcz Gdański Rondo Bursztynowe 02,54.26808205057,18.624096004771,5706
14680,Sulmin Trakt Konny 19,54.31597253443,18.481515362064,7907
14682,Sulmin 16,54.313950206152,18.471229184003,7910
14694,Nad Stawem 02,54.383443294776,18.606499237833,1972
14696,Nad Stawem 01,54.383609328124,18.60625854411,1973
14723,Otomin Dziewicza 01,54.326323665186,18.528609273799,6001
14725,Otomin Sarnia 01,54.324681094183,18.517357269249,6004
14804,Zajezdnia WRZESZCZ T1,54.389925687838,18.57904105677,291
14811,Pruszcz Gdański Rondo Bursztynowe 01,54.269001027448,18.622829763717,5705
14816,Królewskie Wzgórze 02,54.349674554349,18.57396044432,2260
14817,Łabędzia 02,54.347096914796,18.572296521877,2258
14819,Stolema 01,54.341525116497,18.570609431535,2257
14844,Ugory eMOCja 03,54.362903568976,18.704691379974,3126
14846,Pokładowa 92,54.394679668757,18.688081426229,9078
14851,Ujeścisko 51,54.331162299012,18.57342029845,398
14855,Kłosowa 01,54.361490754172,18.717885201791,3101
14869,Port Lotniczy 04,54.382885917295,18.46774561529,104
14876,Pruszcz Gdański Paderewskiego 02,54.257067028708,18.663054399106,5886
14877,Pruszcz Gdański Paderewskiego 01,54.256947851384,18.663398937541,5885
14882,Pruszcz Gdański Kasprowicza (rondo) 01,54.264533313278,18.665150488806,5863
14891,Traugutta 04,54.368057797931,18.629072050499,3015
14898,Kolbudzka 02,54.33762725042,18.513884514958,3815
14905,Gdynia Rdestowa - Kolonia 04,54.460287019763,18.44961887548,9232
14920,Długie Ogrody 02,54.347291623946,18.663183300404,1034
14930,Podleckiego 02,54.307888425628,18.590517540471,3122
14934,Pruszcz Gdański Nałkowskiej 91,54.25645053234,18.668355759031,9887
14941,Gdynia Bielińskiego 01,54.457355930652,18.444925275371,8210
14956,Kampinoska 02,54.315959667202,18.604868767495,3023
14959,Kokoszki 03,54.354622030086,18.48887823448,3703
14960,Głęboka 01,54.352171954551,18.671493806918,7003
14966,Zimna 02,54.360697635292,18.710186554729,7010
14969,Stogi 02,54.361349684387,18.714706645096,7012
14971,Nowosądecka 01,54.328391309347,18.575552323654,3983
14973,Lawendowe Wzgórze 05,54.328701701501,18.571319543135,3985
14974,Lawendowe Wzgórze 04,54.328863645222,18.570879313888,3986
1510,Osowa Obwodnica 01,54.428716886508,18.495726466906,1510
1519,Biwakowa 02,54.427033577669,18.459903726954,1519
1521,Osowa PKP 02,54.420752394679,18.451936692465,1521
1527,Piastowska 04,54.416134293656,18.5859277241,1527
1528,Piastowska 03,54.416121346402,18.587978565268,1528
1534,Oliwa Pętla Tramwajowa 08,54.410079827641,18.565569980205,1534
1538,Bobrowa 02,54.41833032344,18.559670161954,1538
1540,Czyżewskiego 01,54.422134931013,18.561987739997,1540
1541,Brama Oliwska 04,54.362596316904,18.639839212219,1541
1546,Koziorożca 01,54.41967979817,18.471473596739,1546
1548,Zeusa 01,54.422238313306,18.462728811134,1548
1554,Jelitkowo Kapliczna 02,54.421541679502,18.601488417889,1554
1560,Startowa 04,54.396628719214,18.597766036287,1560
1564,Maciejkowa 02,54.353921434702,18.505374119933,1564
1578,Sołdka 01,54.426200936751,18.47249039355,1578
1579,Krzemowa 01,54.324616506492,18.618007447363,1579
1582,Bratki 02,54.334741545286,18.670602503593,1582
1594,Jaśkowa Dolina 03,54.378572135049,18.606567171912,1594
1607,Zajezdnia 04,54.388759482365,18.580958208673,1607
1609,Wyspiańskiego 04,54.376411928699,18.623262366614,1609
1611,Mjr Słabego 02,54.372384957477,18.522285440851,1611
1614,Kołobrzeska 04,54.402466361788,18.592062401921,1614
1626,Uniwersytet Gdański 03,54.395303573672,18.572423054864,1626
1629,Wojska Polskiego 04,54.386443917829,18.591938179753,1629
1635,Emaus 02,54.34715335738,18.602084914274,1635
1636,Galeria Bałtycka 03,54.383343441691,18.597402597463,1636
1638,Jednorożca 01,54.424149539473,18.47886081802,1638
1642,Śnieżna 03,54.392220186161,18.65796462912,1642
1643,Śnieżna 04,54.391903543457,18.656935145537,1643
1648,Stocznia Północna 03,54.371414093583,18.63426761973,1648
1649,Stocznia Północna 04,54.371644482139,18.633638477818,1649
1651,Korczaka 02,54.398648620379,18.609850704831,1651
1655,Mickiewicza 04,54.382600053715,18.621595552412,1655
1670,Pólnicy 01,54.339562984465,18.561140004174,1670
1681,Boguckiego 02,54.337921142885,18.904738526234,1681
1685,Szadółki 02,54.328331326969,18.551668639266,1685
1686,Przywidzka 01,54.325245180713,18.549329671754,1686
1692,Sucharskiego 04,54.359629698935,18.690943717613,1692
1693,Stokrotki 02,54.332525662366,18.666189963191,1693
1696,Botaniczna 01,54.364925266457,18.459275323319,1696
1707,Łanowa IV 01,54.319075368256,18.681022076339,1707
1709,Modra II 01,54.321140195356,18.693531398307,1709
1714,Bursztynowa 02,54.425910162176,18.59287674388,1714
1715,Bursztynowa 01,54.426623670709,18.592141090732,1715
1716,Oliwa PKP 01,54.411164308424,18.572996097274,1716
1719,Życzliwa 02,54.345876089777,18.533390875106,1719
1722,Gostyńska Szpital 01,54.347921211857,18.510846839922,1722
1727,SDO "Złota Jesień" 01,54.386967060957,18.598792750024,1727
1731,Terminal - Cargo 02,54.382669034166,18.475845030934,1731
1733,Firoga 02,54.380970749814,18.48234085221,1733
1739,Kilińskiego 01,54.386080900557,18.604867008013,1739
1746,Góralska 02,54.37563043438,18.563790694022,1746
1752,Zaspa SKM 01,54.38957754784,18.594450331909,1752
1754,Rozstaje 05,54.388863936614,18.607847235012,1754
1763,Sobieszewska 02,54.346922468476,18.81620380542,1763
1766,Oriona 01,54.417349401383,18.456402443793,1766
1778,Oliwa Pętla Tramwajowa 05,54.40909811758,18.568602597989,1778
1779,Oliwa Pętla Tramwajowa 04,54.409088505206,18.568125408536,1779
1786,Keplera 01,54.416718046738,18.466137483565,1786
1787,Wodnika 02,54.416071662198,18.478632324164,1787
1791,Przymorze SKM 02,54.401941834041,18.578425521089,1791
1792,Przymorze SKM 01,54.401713337883,18.578238674533,1792
1796,Wojska Polskiego 03,54.387809314342,18.590533495787,1796
1799,Liliowa 02,54.31548491996,18.590965323608,1799
1805,Lubowidzka 02,54.327983643917,18.538123017621,1805
1807,Potęgowska 02,54.331646236164,18.546241522794,1807
1825,Reymonta 01,54.382980444735,18.585071658095,1825
1834,Targ Chlebowy 01,54.350437868124,18.652986296159,1834
1848,Wołkowyska 01,54.350719312414,18.570036062162,1848
1856,Szmaragdowa 01,54.314741141977,18.599650187741,1856
1860,Srebrna 03,54.312187318625,18.596908361402,1860
1862,Osiedle Jary 01,54.335278992506,18.601699415116,1862
1863,Rogalińska 02,54.331073863775,18.600452165894,1863
1867,Smoluchowskiego 02,54.367098437674,18.623261612538,1867
1868,Smoluchowskiego 01,54.367086443957,18.624478558853,1868
1885,Owczarnia 02,54.414129800091,18.480354587916,1885
1898,Kontenerowa 01,54.380498439849,18.696779206815,1898
1900,Terminal DCT 01,54.383070863014,18.706291743665,1900
1905,Telewizyjna 02,54.398147917804,18.485217465417,1905
1913,Centrum Onkologii 04,54.370107219991,18.627229495365,1913
1915,Uniwersyteckie Centrum Kliniczne 02,54.366671757577,18.62670405315,1915
1922,Zabytkowa 01,54.379779733457,18.59000299051,1922
1926,Trawki 01,54.37750198991,18.574582816661,1926
1933,Porębskiego 01,54.317649283368,18.582319811983,1933
1937,Przegalińska - Schronisko 02,54.313770137227,18.911670176115,1937
1938,Dulkowa 01,54.315701782866,18.902285547461,1938
1940,Komary 01,54.315710157074,18.893997734361,1940
1944,Marynarska 01,54.315499707423,18.869223244688,1944
1954,Sobieszewko Ośrodek 01,54.335117550073,18.840073334182,1954
1956,Osiedle Świętokrzyskie 02,54.313764718007,18.571092651636,1956
1958,Osiedle Świętokrzyskie 03,54.314107806693,18.569826978792,1958
1969,Leszczynowa 02,54.330910285288,18.556929942797,1969
1970,Jabłoniowa Osiedle 01,54.331636279021,18.563932107876,1970
1983,Piotrkowska 04,54.331464820302,18.584908550112,1983
1984,Jeleniogórska 01,54.328648983342,18.582566458582,1984
1989,Węzeł Harfa 01,54.391978902295,18.638660691198,1989
1999,al. Płażyńskiego 05,54.402774038641,18.623463420057,1999
2010,Uniwersytet Medyczny 02,54.36673644241,18.633659069185,2010
2018,Miszewskiego 02,54.375709412011,18.615449547741,2018
2022,Klonowa 02,54.379790560381,18.603185158383,2022
2024,Galeria Bałtycka 02,54.382138978249,18.598766692583,2024
2026,Wojska Polskiego 02,54.387024657151,18.590856743888,2026
2033,Strzyża PKM 01,54.391158400201,18.577751470582,2033
2038,Bażyńskiego 02,54.399316010428,18.568102916522,2038
2041,Derdowskiego 01,54.40512815591,18.563875521492,2041
2044,Obrońców Westerplatte 02,54.408336455378,18.56293009437,2044
2046,Oliwa 02,54.410035264727,18.566034979296,2046
2058,Helska 02,54.42159123172,18.588181375609,2058
2062,Plac Solidarności 02,54.360361141863,18.647833246516,2062
2077,Plac Komorowskiego 01,54.383647198263,18.614527141096,2077
2078,Plac Komorowskiego 02,54.383503829605,18.614550861145,2078
2081,Bajana 01,54.38982796064,18.608407300434,2081
2083,Żwirki i Wigury 01,54.392104531348,18.605794621563,2083
2098,Piastowska 02,54.416436714765,18.586665243985,2098
2101,Brama Wyżynna 02,54.350491062016,18.646027294931,2101
2103,Okopowa 02,54.347499904902,18.646613804387,2103
2106,Żabi Kruk 02,54.346599900341,18.651635527184,2106
2109,Akademia Muzyczna 02,54.344611588306,18.664520208216,2109
2110,Akademia Muzyczna 01,54.344633171239,18.664242016793,2110
2114,Brama Żuławska 02,54.347743128788,18.669328350822,2114
2137,Hucisko 02,54.351895769271,18.645223642998,2137
2141,Paska 02,54.35006877721,18.629969734974,2141
2143,Ciasna 02,54.349158922308,18.624389782008,2143
2154,Węzeł Kliniczna 02,54.376492453147,18.630556898183,2154
2158,Żaglowa - AmberExpo 01,54.382399869484,18.638409980618,2158
2160,Mostostal 01,54.385694485744,18.644612778229,2160
2165,Marynarki Polskiej 01,54.398396109511,18.666317729218,2165
1552,Archikatedra Oliwska 01,54.410779766403,18.557051770473,1552
1571,Iławska 02,54.439562177037,18.458449464203,1571
1577,Sołdka 02,54.426229806474,18.472581126038,1577
1591,Plac Wolności 01,54.399084403914,18.669837760714,1591
1596,Teatr Miniatura / Radio Gdańsk 03,54.375860212196,18.616256947362,1596
1597,Opera Bałtycka 04,54.372455443808,18.623213835202,1597
1598,Opera Bałtycka 05,54.373207719748,18.623524515929,1598
1618,Legionów 03,54.388003338547,18.610238647997,1618
1620,Kościuszki 03,54.387872705906,18.621829621045,1620
1622,Obrońców Westerplatte 03,54.408367432684,18.563128603512,1622
1623,Uniwersytet Gdański 04,54.395634571062,18.571448299266,1623
1632,Wojska Polskiego 05,54.387116505397,18.589603698815,1632
1633,Emaus 04,54.348229743324,18.602868593331,1633
1634,Galeria Bałtycka 07,54.38323467357,18.59916475353,1634
1637,Sopocka 04,54.427916384367,18.478860730993,1637
1646,Swojska 03,54.379447429167,18.63454469004,1646
1652,Wyspiańskiego 03,54.376850523646,18.62362200074,1652
1659,Bysewo 02,54.373941102314,18.462629657181,1659
1662,Akademia Muzyczna 03,54.344872898983,18.664551547753,1662
1664,Kamienna Grobla 01,54.341777630193,18.655603190604,1664
1666,Opacka 03,54.415095843289,18.566444084317,1666
1669,Nadwodna 01,54.422813167223,18.563967055333,1669
1673,Jeziorowa 01,54.332747552142,18.559313020629,1673
1676,Jaworowa 02,54.338769598074,18.559694621266,1676
1682,Dobra 01,54.34118617128,18.6552368318,1682
1690,Kliniczna 04,54.375128561154,18.626570242621,1690
1694,Schronisko dla zwierząt "Promyk" 03,54.368602439109,18.46141930658,1694
1706,Łanowa III 01,54.322310850435,18.677241398344,1706
1708,Modra I 01,54.316094606859,18.68543364845,1708
1711,Modra IV 01,54.329372163082,18.684010988879,1711
1717,Cieszyńskiego 04,54.338400119932,18.609933224655,1717
1718,Oliwa PKP 05,54.411634942321,18.573153236331,1718
1720,Życzliwa 01,54.34514184276,18.536173879698,1720
1723,Piekarnicza 03,54.352119364388,18.591884397463,1723
1724,Piekarnicza 04,54.351226942795,18.59221362199,1724
1730,Odyseusza 01,54.43088523693,18.481978251414,1730
1735,Karskiego 02,54.363728542752,18.556274774776,1735
1736,Karskiego 01,54.363544028291,18.556485862869,1736
1742,Świętokrzyska 02,54.324475309762,18.603620187681,1742
1747,Spadochroniarzy 01,54.38705378996,18.47186351123,1747
1751,Ogrody Działkowe "Rębiechowo" III 02,54.374214499579,18.467940798204,1751
1755,Rozstaje 04,54.388397002828,18.607874407441,1755
1756,Srebrna 01,54.312826192742,18.596486731776,1756
1757,Srebrna 02,54.312548133285,18.596518319702,1757
1767,Hynka 02,54.396704445461,18.588039902766,1767
1768,Hynka 01,54.396943688214,18.58876539336,1768
1770,Olszyńska 01,54.333848393434,18.65605450738,1770
1771,Przybrzeżna 03,54.334903624761,18.64791813433,1771
1775,Głucha 02,54.327405108144,18.640963497646,1775
1777,Migowo 04,54.352775754037,18.575732245784,1777
1781,Saturna 02,54.414643134027,18.446597162482,1781
1782,Saturna 01,54.414893689735,18.446966937568,1782
1788,Wodnika 01,54.416293179608,18.47761677268,1788
1795,Karczemki 03,54.349340927854,18.510376258092,1795
1804,Szadółki Obwodnica 01,54.323150802071,18.542718030566,1804
1806,Lubowidzka 01,54.327940943565,18.538233238278,1806
1808,Potęgowska 01,54.331264507846,18.546479616449,1808
1809,Połczyńska 02,54.333413972239,18.5421057894,1809
1827,Forsycji 02,54.342390943068,18.857769959581,1827
1832,Targ Drzewny 01,54.351439717839,18.649035591124,1832
1842,Turystyczna 01,54.342596537077,18.852143497105,1842
1849,Wołkowyska 02,54.351160212975,18.568270981614,1849
1850,Zacna 01,54.350601771277,18.56331772371,1850
1854,Czermińskiego 01,54.322413149073,18.552420147239,1854
1864,Rogalińska 01,54.330889267381,18.600662886561,1864
1872,Staw Wróbla 01,54.350474254445,18.556569225747,1872
1882,Olimpijska 02,54.30572785859,18.58138936285,1882
1883,Marsa 02,54.420120680814,18.478368254086,1883
1889,Kontenerowa 02,54.380320099503,18.694971958518,1889
1890,Śluza 01,54.34116327382,18.658222980207,1890
1895,Bora-Komorowskiego 06,54.407455306055,18.588888132157,1895
1909,Zbieżna 02,54.366954651401,18.4879253304,1909
1910,Grudziądzka 04,54.396337767361,18.622572304065,1910
1912,Opera Bałtycka 06,54.372822819131,18.624978746448,1912
1914,Traugutta 03,54.368074029515,18.629440618146,1914
1919,Radarowa 01,54.393262563857,18.485470196947,1919
1923,Zabytkowa 02,54.379186503244,18.587758518339,1923
1927,Chrzanowskiego 03,54.380498966917,18.588205149001,1927
1929,Przytulna 01,54.348382819622,18.53331762413,1929
1930,Szczęśliwa 02,54.349065051238,18.527998245766,1930
1942,Sobieszewska Pastwa 2 01,54.31258189122,18.873509764787,1942
1946,Sobieszewska Pastwa 1 01,54.31909529739,18.86565446534,1946
1947,Sobieszewska Pastwa 1 02,54.31934705078,18.865149366496,1947
1953,Sobieszewko 02,54.328389745494,18.843886622308,1953
1955,Sobieszewko Ośrodek 02,54.334616814178,18.840222651622,1955
1960,Elfów 02,54.316321063665,18.56946583043,1960
1961,Baśniowa 02,54.318865569454,18.565471320971,1961
1962,Baśniowa 01,54.319273020414,18.564724487714,1962
1963,Rębowo 02,54.322461864811,18.558814989372,1963
1964,Rębowo 01,54.322230342542,18.559812965942,1964
1968,Leszczynowa 01,54.33092530652,18.558559578515,1968
1980,Wilanowska 03,54.337098626904,18.59962424163,1980
1981,Przemyska 05,54.332786924357,18.594383818797,1981
1996,Uczniowska 02,54.400428174793,18.625771646583,1996
2007,Chodowieckiego 01,54.364041913598,18.638370792509,2007
2009,Uniwersytet Medyczny 01,54.366896568928,18.633572881379,2009
2013,Opera Bałtycka 03,54.372180421514,18.624769479192,2013
2014,Opera Bałtycka 02,54.371948464819,18.624859860907,2014
2019,Miszewskiego 01,54.3758473096,18.615148972722,2019
2023,Klonowa 01,54.379966177885,18.602974715247,2023
2027,Wojska Polskiego 01,54.387072390537,18.590545882096,2027
2037,Bażyńskiego 01,54.39895592362,18.568524829804,2037
2040,Tetmajera 02,54.402639160214,18.565718116704,2040
2042,Derdowskiego 02,54.405545206906,18.563604225719,2042
2047,Opacka 01,54.413875871963,18.565684055247,2047
2049,Subisława 01,54.416747832838,18.573483065085,2049
2056,Osiedle Wejhera 02,54.42042839255,18.5844265758,2056
2071,Wyspiańskiego 01,54.376543399179,18.623547352605,2071
2073,Reja 01,54.379049702446,18.622540108175,2073
2074,Reja 02,54.378904210362,18.622456119543,2074
2075,Mickiewicza 01,54.383390021491,18.620625751055,2075
2079,Legionów 01,54.38705227842,18.610786835904,2079
2082,Bajana 02,54.389737860762,18.608397138507,2082
2091,Kołobrzeska 01,54.403392539657,18.591622885397,2091
2100,Pomorska 02,54.419365138869,18.584304144049,2100
2104,Okopowa 01,54.34758430489,18.646331991642,2104
2107,Chmielna 02,54.345362306623,18.657337894208,2107
2108,Chmielna 01,54.345474567305,18.657100695752,2108
2113,Brama Żuławska 01,54.347773038398,18.669480539857,2113
2125,Ugory eMOCja 02,54.362829882764,18.70412592211,2125
2126,Ugory eMOCja 01,54.36294135748,18.70384261426,2126
2138,Hucisko 01,54.351848491548,18.645564923872,2138
2142,Paska 01,54.350066139189,18.630293060483,2142
2144,Ciasna 01,54.349128754833,18.624683911772,2144
2149,Siedlce 02,54.348168775552,18.607042454225,2149
2150,Siedlce 01,54.348352330364,18.607231837419,2150
2153,Węzeł Kliniczna 01,54.376594853649,18.630735788191,2153
2155,Swojska 01,54.379526437085,18.634447743777,2155
2156,Swojska 02,54.378883916409,18.633314305271,2156
2168,Nowy Port Zajezdnia 03,54.397953612921,18.67319898157,2168
2175,Kolonia Uroda 02,54.392522846173,18.622407848466,2175
2178,al. Płażyńskiego 02,54.402721261305,18.623065839584,2178
2181,Gdańska 01,54.402370906345,18.630852157924,2181
2190,Brzeźno Dom Zdrojowy 02,54.407322570892,18.638564720586,2190
2191,Krasickiego 02,54.406175491966,18.644270793136,2191
2196,Kasztanowa 01,54.404103845242,18.661170403327,2196
2200,Przychodnia 01,54.402236638283,18.669674401939,2200
2211,Pohulanka 02,54.34868895851,18.636620143875,2211
2212,Pohulanka 01,54.34863242408,18.636946551274,2212
2213,Odrzańska 02,54.345449403575,18.62592714694,2213
2221,Cieszyńskiego 02,54.338234075269,18.610173634024,2221
2223,Cebertowicza 02,54.338431950895,18.605192812458,2223
2225,Wilanowska 02,54.336851592394,18.599407873544,2225
5226,Pruszcz Gdański Radunica 01,54.279343209876,18.639486585542,5226
5603,Pruszcz Gdański Chopina 02,54.261777870043,18.635868403236,5603
5606,Pruszcz Gdański Matejki 01,54.255950282559,18.633929521286,5606
5611,Pruszcz Gdański 1 Maja 01,54.259833497761,18.633906698372,5611
5702,Pruszcz Gdański Wojska Polskiego 01,54.263510934958,18.635308486124,5702
5704,Pruszcz Gdański Rondo Kaszubskie 02,54.266083869171,18.62808116618,5704
5811,Pruszcz Gdański Drzymały 01,54.256694619377,18.651759349511,5811
5812,Pruszcz Gdański Dąbrowskiego 02,54.258101227383,18.649207255328,5812
5814,Pruszcz Gdański Powstańców Warszawy 02,54.257201231569,18.659315669676,5814
5816,Pruszcz Gdański Emilii Plater 02,54.26022915437,18.660618216637,5816
5829,Pruszcz Gdański Niemcewicza 01,54.260722468735,18.649933347378,5829
5834,Pruszcz Gdański Batalionów Chłopskich 01,54.245893689981,18.631803690258,5834
5836,Pruszcz Gdański Obrońców Westerplatte 02,54.265800620879,18.657261779267,5836
5838,Pruszcz Gdański Wiśniewskiego 02,54.265270451388,18.652653892284,5838
5841,Pruszcz Gdański Osiedle Piastowskie 01,54.267215518742,18.652359024066,5841
5870,Pruszcz Gdański Osiedle Kasprowicza 02,54.265040600549,18.663493925063,5870
5873,Pruszcz Gdański Batalionów Chłopskich 02,54.245120324796,18.630420450485,5873
7429,Rębiechowo Rębiechowo PKP 02,54.388781219879,18.417579954757,7429
7430,Rębiechowo Rębiechowo PKP 01,54.388613267682,18.417713742531,7430
7577,Chwaszczyno Szmaragdowa 02,54.442735333344,18.430395899595,7577
7979,Banino Szkoła 02,54.391460663906,18.410463699052,7979
7987,Miszewo 01,54.388493875651,18.359846459591,7987
7988,Miszewo Pępowo 02,54.380769016751,18.361805709854,7988
7992,Żukowo Słoneczna 02,54.361205683313,18.364676718459,7992
7994,Żukowo Dworcowa 02,54.348700840542,18.367185631729,7994
7997,Żukowo Dworcowa 01,54.346957707606,18.365173430339,7997
8102,Gdynia Anyżowa 02,54.474638742615,18.468592580179,8102
8237,Chwaszczyno 02,54.444083811273,18.419853098136,8237
8239,Centrum Nadawcze RTV 01,54.45233681255,18.44097981037,8239
8337,Gdynia Nałkowskiej 02,54.469854029221,18.499140231928,8337
14423,Osiedle Barniewice 01,54.412273620837,18.451460933038,174
14424,Chmielna 04,54.34530606273,18.656756375219,1039
14429,Pruszcz Gdański Waląga 02,54.261833243481,18.639151477309,5843
14431,Pastelowa 02,54.30815442487,18.600248912855,1605
14432,Meteorytowa 01,54.411351658016,18.484655644413,1904
14445,Leśna Góra - Przychodnia 02,54.373566143942,18.563959165934,1428
14446,Reymonta 02,54.382859095205,18.584847760729,1824
14453,Jasia i Małgosi 02,54.397876051005,18.56401274143,1814
14454,Jasia i Małgosi 01,54.398111684082,18.564106624847,1815
14456,Bażyńskiego 06,54.399416354117,18.569067677366,1812
14458,Pruszcz Gdański Broniewskiego 02,54.264335536728,18.670260229503,5868
14468,Górecka 01,54.355336724426,18.745345084736,1429
14473,Sopot Uniwersytet Gdański 01,54.444293929764,18.556151475405,4050
14474,Sopot Sikorskiego 01,54.441658309115,18.557850865119,4048
14477,Sopot Reja 02,54.431397083176,18.561668858048,4042
14478,Sopot Smolna 02,54.428326259437,18.562298431097,4040
14479,Sopot Kasztanowa 01,54.424785162858,18.563680442969,4037
14481,Sopot Reja 01,54.431403614064,18.561992289421,4041
14483,Sopot PKP - Niepodległości 01,54.438641010923,18.560683166959,4003
14492,Sopot Przylesie 02,54.447962696943,18.539812450029,4055
14500,Sopot Kamienny Potok SKM 02,54.458465240454,18.554535338695,4010
14501,Sopot Wejherowska 02,54.45306609533,18.555165885782,4075
14520,Sopot 23 Marca 02,54.448202723591,18.543654643782,4053
14532,Jasieńska 01,54.34945628204,18.552474547636,1874
14533,Jasień PKM 01,54.353218519859,18.550034574857,185
14536,Piekarnicza 01,54.351417045296,18.592279451479,2274
14542,Kolumba 01,54.36025449903,18.57747750203,2266
14543,Brętowo PKM 02,54.366047843966,18.574088089452,224
14553,Matarnia PKM 02,54.373242653156,18.505880753553,1539
14572,Pruszcz Gdański Obrońców Wybrzeża 01,54.258854960648,18.627574991709,5853
14577,Pruszcz Gdański Rondo Kaszubskie 01,54.266997451679,18.626538939411,5703
14578,Pruszcz Gdański Osiedle Bursztynowe 02,54.267799918663,18.628028666463,5898
14583,Pruszcz Gdański Zastawna 02,54.245889889481,18.622025710977,5875
14587,Migowo 02,54.352479126966,18.575734325962,2262
14592,Andruszkiewicza 01,54.366947547799,18.692365066238,1067
14605,Worcella 02,54.341185264231,18.62623453384,1663
14610,Kowale Osiedle Olimp 01,54.311256989807,18.56621280369,6022
14616,Kowale Kasztelańska 02,54.305817891782,18.55288269199,6025
14618,Kowale Szlachecka 01,54.303338876316,18.546358338888,6028
14621,Chmielna 03,54.34564908952,18.656829177767,1040
14623,Bogatka II 02,54.322321620445,18.776539864878,5113
14624,Bogatka I 01,54.32808085077,18.782719647328,5114
14626,Bogatka III 01,54.322104537008,18.763341627359,5110
14627,Bogatka III 02,54.321971830906,18.762487647037,5111
14631,Przejazdowo "Makro" 03,54.3383389007,18.735829660429,5100
14634,Przejazdowo Łąkowa 01,54.322152749803,18.750467331603,5108
14637,Przejazdowo Sezonowa 02,54.330021237054,18.744346628705,5105
14638,Wiślinka Brzegowa 01,54.342313366338,18.794108161709,5122
14651,Jagiełły 01,54.304648479414,18.612028327957,1967
14654,Węzeł Groddecka 02,54.348555694176,18.642213864268,2209
14661,Jelitkowo 90,54.4236895724,18.594224887727,360
14663,Stokłosy 02,54.353016532224,18.480865206437,1702
14665,Sopot Hospicjum 01,54.425623885735,18.562921446104,4036
14681,Sulmin Trakt Konny 20,54.315721446472,18.48111552788,7908
14688,Niestępowo Szkoła 10,54.315597234387,18.433869672033,7920
14709,Kowale Osiedle Cytrusowe 01,54.303102105771,18.573749835649,6016
14719,Topazowa 02,54.309807465045,18.600644669409,1225
14721,Kolorowa 01,54.311730138012,18.602393139643,1858
14722,Kolorowa 02,54.311853103618,18.602247612438,1857
14727,Otomin Otomin - Pętla 01,54.321216678435,18.504570848821,601
14728,Sulmin Trakt Gdański 01,54.314973861505,18.477178660765,7906
14741,Sulmin Wrzosowe Wzgórze 15,54.314701121917,18.462895122843,7911
14760,Sopot Kraszewskiego 02,54.455396452263,18.553931482164,4100
14814,Kaczeńce 03,54.36330101619,18.699127397778,3124
14818,Łabędzia 01,54.34710867809,18.572434323112,2259
14820,Stolema 02,54.341433156526,18.570507153506,2256
14821,Zabornia 01,54.338411128045,18.572223944276,2255
14823,Zabornia 05,54.338122517374,18.573517909972,3990
14827,Ujeścisko 03,54.331645068933,18.571053713131,2253
14829,Ujeścisko 01,54.331527718659,18.571029867712,2284
14831,Ujeścisko 06,54.331482512527,18.571017150837,3988
14832,Ujeścisko 05,54.331441019573,18.571188804678,3989
14834,Łabędzia 04,54.347332233209,18.572374975746,3996
14838,Zabornia 04,54.33850371403,18.57191078403,3992
14843,Ujeścisko 10,54.331167210903,18.574558303548,223
14845,Ugory eMOCja 04,54.362929249654,18.704151165398,3125
14852,Geodetów 01,54.356537175457,18.482850781571,3707
14868,Pruszcz Gdański Bohaterów Monte Cassino 02,54.253905792918,18.648893273432,5802
14886,Pruszcz Gdański Rondo Kociewskie 02,54.2403401566,18.61414898874,5880
14887,Będzieszyn Panattoni 01,54.237928572047,18.606783261176,5231
14892,Szadółki 03,54.328798423077,18.550764130988,3806
14895,Stężycka 01,54.335479416891,18.530552138723,3812
14924,Gdynia Rdestowa - Leśny Zakątek 01,54.463857474021,18.457359944161,8264
14931,Knyszyńska 02,54.314013392669,18.602383340926,3024
14938,Chwaszczyno Polna 01,54.450812513468,18.425940296096,8219
14939,Chwaszczyno Polna 02,54.451389192844,18.424315012766,8216
14943,Gdynia Rdestowa - Kolonia 01,54.461043346118,18.451377312538,8208
14961,Głęboka 02,54.352238968246,18.671705474542,7004
14967,Zimna 01,54.360719614521,18.70992365197,7009
14968,Stogi 01,54.362017762896,18.715331458445,7011
14972,Nowosądecka 02,54.328523241436,18.574960067681,3984
2159,Mostostal 02,54.385765150357,18.645009195644,2159
2162,Polsat Plus Arena Gdańsk 01,54.387260732798,18.648404619389,2162
2163,Śnieżna 01,54.39187389701,18.657260335975,2163
2164,Śnieżna 02,54.392277371192,18.657668676971,2164
2167,Plac Wolności 03,54.399067038363,18.669869560313,2167
2169,Władysława IV 01,54.39869484397,18.674343371694,2169
2174,Kolonia Uroda 01,54.392295931481,18.622297734268,2174
2179,al. Płażyńskiego 01,54.401585174324,18.62243817882,2179
2186,Wczasy 01,54.409121619019,18.62807405337,2186
2187,Uczniowska 01,54.400363905598,18.626160562166,2187
2193,Latarnia Morska 01,54.404685693862,18.655944249623,2193
2194,Latarnia Morska 02,54.404617764786,18.655223875634,2194
2195,Kasztanowa 02,54.403945787116,18.661364312711,2195
2197,Na Zaspę 01,54.401409916917,18.664574909056,2197
2207,Śródmieście SKM 02,54.347771569795,18.643951486145,2207
2222,Cieszyńskiego 01,54.33816558775,18.610346841521,2222
2230,Płocka 01,54.32894799659,18.598884031094,2230
2231,Łostowice Świętokrzyska 02,54.323149199187,18.606557849602,2231
5600,Pruszcz Gdański Przemysłowa 03,54.269813460284,18.639923933938,5600
5601,Pruszcz Gdański Przemysłowa 02,54.270869629972,18.63785144787,5601
5605,Pruszcz Gdański Matejki 02,54.255655096411,18.633547224632,5605
5609,Pruszcz Gdański Urząd Skarbowy 01,54.249351943918,18.638068529934,5609
5813,Pruszcz Gdański Powstańców Warszawy 01,54.256338553142,18.659333843151,5813
5827,Pruszcz Gdański Sienkiewicza 01,54.262732666046,18.658526128976,5827
5840,Pruszcz Gdański Osiedle Piastowskie 02,54.267158351509,18.652193333943,5840
5869,Pruszcz Gdański Osiedle Kasprowicza 01,54.265297562106,18.662373647687,5869
5874,Pruszcz Gdański Fabryczny 01,54.24537743076,18.626583510392,5874
7575,Chwaszczyno Oliwska 02,54.4422784587,18.444877306127,7575
7576,Chwaszczyno Oliwska 01,54.442019176559,18.446219954676,7576
7982,Banino Pszenna 01,54.393365606136,18.384984874046,7982
7986,Miszewo 03,54.389653783167,18.361497318285,7986
7995,Żukowo Fenikowskiego 01,54.349990221711,18.36653372081,7995
8101,Gdynia Karwiny Nowowiczlińska 02,54.473327017808,18.477657421458,8101
8228,Gdynia Kameliowa 02,54.470180527742,18.468204277747,8228
8235,Chwaszczyno Gdyńska 01,54.447553960842,18.427857159488,8235
8244,Gdynia Leśna Polana 01,54.462794881502,18.45514189294,8244
8245,Gdynia Szafranowa 01,54.465798761539,18.461607141014,8245
8248,Gdynia Anyżowa 01,54.474834202056,18.469769128036,8248
8249,Gdynia Kameliowa 01,54.470798424046,18.468088926889,8249
8265,Gdynia Rdestowa - Leśny Zakątek 02,54.464095453562,18.457561239185,8265
8309,Gdynia Źródło Marii 02,54.470670794642,18.494737718941,8309
14427,Subisława 03,54.416847849374,18.572644774074,1603
14430,Pastelowa 01,54.308415749184,18.60027982357,1604
14442,Cmentarna 02,54.340773172509,18.635920534399,1821
14443,Leśna Góra 01,54.373728280057,18.558637139604,192
14444,Leśna Góra - Przychodnia 01,54.373384385829,18.563862144009,1427
14448,Mjr Hubala 01,54.386419745988,18.579047288544,1823
14455,Bażyńskiego 07,54.398921516398,18.567263430418,1813
14457,Pruszcz Gdański Broniewskiego 01,54.264433427977,18.670208635658,5867
14459,Meteorytowa 02,54.411353904535,18.485194952246,1903
14469,Górecka 02,54.355321349472,18.74548444401,1430
14485,Sopot Uniwersytet Gdański 02,54.44584648911,18.554686113774,4049
14488,Sopot Hestii 01,54.432109247214,18.583230241762,4059
14493,Sopot Sanatorium "Leśnik" 01,54.449260850905,18.52722345081,407
14497,Sopot Hestii 02,54.431731461087,18.583668828902,4060
14498,Sopot Hotel "Marina" 02,54.429365103315,18.588063817145,4058
14499,Sopot Przylesie 03,54.447970350091,18.540629583973,4056
14512,Sopot 3 Maja 03,54.435466492005,18.56151958395,4001
14515,Sopot Malczewskiego 01,54.44975719081,18.555579114958,4009
14519,Sopot Brodwino Szkoła 01,54.456107217553,18.531423966647,4090
14523,Focha 01,54.35856575116,18.62273853584,1880
14530,Pruszcz Gdański Wysockiego 01,54.263539528624,18.675127166855,5865
14538,Belgradzka 01,54.355555317543,18.588374206362,2272
14547,Migowo 01,54.352673562256,18.576015291676,2263
14549,Jasieńska 02,54.348593785832,18.549401868785,1873
14554,Matarnia PKM 01,54.37440449694,18.507288576972,1412
14559,Sopot Małopolska 02,54.455623117049,18.543395292452,4094
14560,Sopot Kolberga 02,54.457094527522,18.537953022109,4096
14561,Sopot Brodwino 02,54.457716116241,18.534490243612,4098
14563,Rondo Mazowieckiego 01,54.388468817348,18.648581967357,1987
14584,Pruszcz Gdański Zastawna 01,54.245855180761,18.622089109823,5876
14586,Pruszcz Gdański Rogozińskiego 01,54.26900282734,18.624288764758,5899
14591,Andruszkiewicza 02,54.362125131606,18.690280309136,1068
14599,Pruszcz Gdański 49 Baza Lotnicza 02,54.255645558136,18.659756956367,5809
14607,Pruszcz Gdański Osiedle Wschód 91,54.260035014655,18.673343572669,9819
14609,Kowale Osiedle Olimp 02,54.310905828258,18.564849801572,6021
14613,Kowale Szkoła Metropolitalna 01,54.306555550829,18.569349743542,603
14628,Przejazdowo Dobrowo 01,54.339700168756,18.735554817452,5101
14629,Przejazdowo Dobrowo 02,54.337307911961,18.73885546372,5102
14630,Przejazdowo Dobrowo 04,54.338888511512,18.738291761672,5103
14632,Przejazdowo Jesionowa 01,54.324291761866,18.746105910369,5106
14639,Wiślinka Brzegowa 02,54.342204473175,18.794052451794,5123
14642,Wiślinka Sportowa 01,54.335385061762,18.813508143647,5126
14650,Pruszcz Gdański Azaliowa 01,54.263689669791,18.663831423731,5890
14655,Węzeł Groddecka 01,54.348798148211,18.642199978398,2210
14660,Żabianka SKM 03,54.422792990199,18.569657020797,322
14662,Leźnieńska 01,54.353539427927,18.469767007792,1700
14683,Sulmin 17,54.31401269458,18.470779436564,7909
14684,Niestępowo Sulmińska 01,54.318446526635,18.450792695592,7915
14686,Niestępowo Gdańska 12,54.315692031852,18.444258676847,7918
14689,Niestępowo Do Zdroju 08,54.319345968608,18.425424127413,7922
14691,Stara Piła 09,54.325334262801,18.41411420921,790
14693,Toruńska 02,54.344718487467,18.645049421247,1005
14700,Śródmieście SKM 03,54.347549176445,18.644071930756,1018
14712,Pomorskie Szkoły Rzemiosł 03,54.360698066121,18.613718057298,1744
14720,Topazowa 01,54.309814798589,18.601013225497,1226
14812,Pruszcz Gdański Rotmanka - Rondo 01,54.27076921136,18.616768406385,5129
14825,Lawendowe Wzgórze 01,54.327918964898,18.569950620026,2251
14830,Ujeścisko 04,54.331840442237,18.571380610406,3987
14857,Pruszcz Gdański Emilii Plater 04,54.259895450228,18.66009967539,5891
14864,Maszynowa 01,54.357693372123,18.477946775149,3709
14867,Pruszcz Gdański Bohaterów Monte Cassino 01,54.254072818288,18.649160128318,5801
14878,Pruszcz Gdański Nałkowskiej 02,54.256535584564,18.668105291134,5888
14899,Kolbudzka 01,54.33730493676,18.515257840895,3816
14918,Brętowo PKM 05,54.365285852163,18.57374814251,2285
14928,Kiełpino Górne 02,54.342135517612,18.499302683455,378
14932,Czaple Bysewo 01,54.365480227308,18.443414319203,791
14937,Chwaszczyno Nytbusz 02,54.452283820418,18.427483343912,8214
14942,Gdynia Bielińskiego 02,54.456712145403,18.443391541531,8213
14944,Chwaszczyno Gdyńska 02,54.44843169885,18.429391080194,8218
14946,Warneńska 02,54.357705817447,18.582630019331,7001
14947,Piotrkowska 03,54.331907273731,18.585005670215,1982
14957,Stokłosy 05,54.353762755274,18.48302046632,3705
14970,Rozłogi 02,54.36316062587,18.715868361902,7014
14975,Rybaki Górne 02,54.358591185035,18.655738324723,3091
1465,Opolska 02,54.405134575383,18.597838853124,1465
1469,Krynicka 02,54.403625309293,18.587972613827,1469
1471,Chłopska 01,54.408236787999,18.591107702076,1471
1473,Obrońców Wybrzeża 02,54.409145304307,18.597450189767,1473
1476,Czarny Dwór 01,54.407645506859,18.613842626793,1476
1477,Czarny Dwór 03,54.406735524216,18.614650599909,1477
1481,Leszczyńskich 02,54.399197625035,18.606706414261,1481
1482,Dywizjonu 303 01,54.393115417285,18.600112747897,1482
1485,Pilotów 01,54.392323802497,18.598279541089,1485
1487,Pomorska 04,54.419253998299,18.584141114315,1487
1489,Piastowska 06,54.415081145792,18.586760321159,1489
1490,Czerwony Dwór 03,54.413038361505,18.588005504486,1490
1491,Dworska 03,54.404125140906,18.627253046849,1491
1493,PCK 01,54.404417373556,18.632521656979,1493
1494,PCK 02,54.404786287022,18.631622043768,1494
1513,Nowa 02,54.432505369106,18.471315658769,1513
1514,Nowa 01,54.431780790501,18.472347214656,1514
1515,Barniewicka 02,54.434211507017,18.466075203362,1515
1517,Niedziałkowskiego 02,54.430277832565,18.461985085504,1517
1524,Nowy Świat 01,54.418608668004,18.450466513782,1524
1530,Poznańska 01,54.414460663089,18.580014831997,1530
1536,Cmentarz Oliwski 02,54.413460529924,18.557138918714,1536
1537,Bobrowa 01,54.419452804802,18.560497546186,1537
1545,Cmentarz Oliwski 01,54.413446932817,18.557355512883,1545
1553,Jelitkowo Kapliczna 01,54.422006773053,18.601368749162,1553
1555,Jelitkowo 03,54.423897204366,18.596525274043,1555
1556,Jelitkowo 04,54.423761376245,18.596024466099,1556
1558,Karczemki 04,54.350916808338,18.512681780169,1558
1567,Fundamentowa 01,54.35573708164,18.492781295944,1567
1568,Montażystów 02,54.35864220223,18.497606994382,1568
1569,Barniewicka 03,54.435175686727,18.465753492815,1569
1570,Pomorska - Osiedle 03,54.417998904677,18.578033598471,1570
1572,Iławska 01,54.439206380422,18.459057590535,1572
1581,Sopocka 03,54.428946050598,18.479090449934,1581
1583,Montażystów 01,54.358520742362,18.49695248703,1583
1584,Bluszczowa 01,54.337862309175,18.666949097836,1584
1592,Plac Wolności 02,54.399135502205,18.668294116697,1592
1599,Uniwersytet Medyczny 04,54.367343453529,18.63160732042,1599
1601,Mostek 02,54.349053917805,18.67436318981,1601
1602,Kościuszki 05,54.388292550482,18.622606317455,1602
1606,Łanowa II 01,54.3261449906,18.672811107289,1606
1610,Złota Karczma 02,54.374749398356,18.521850414874,1610
1621,Bażyńskiego 04,54.399542647944,18.567750527279,1621
1625,Strzyża PKM 04,54.390846904112,18.577908469697,1625
1628,Strzyża PKM 05,54.391397752877,18.577583316,1628
1630,Zamenhofa 03,54.387016483435,18.585050212694,1630
1631,Galeria Bałtycka 04,54.381464192014,18.599191127035,1631
1641,Marynarki Polskiej 04,54.397851853448,18.666995730723,1641
1645,Polsat Plus Arena Gdańsk 04,54.387281375947,18.648079973597,1645
1647,Swojska 04,54.378980279284,18.633185559039,1647
1650,Grudziądzka 03,54.397577440354,18.622069187078,1650
1661,Akademia Muzyczna 04,54.344529228008,18.664909555453,1661
1665,Opacka 04,54.413881149098,18.565945769763,1665
1668,Górskiego 01,54.420061590973,18.565271074481,1668
1671,Przesypownia 02,54.416694665649,18.459464310575,1671
1672,Jeziorowa 02,54.334566647947,18.559466749911,1672
1677,Jaworowa 01,54.33843798756,18.559745041609,1677
1680,Boguckiego 01,54.338063947376,18.904162060809,1680
1684,Szadółki 01,54.328390504162,18.551926606216,1684
1689,Na Szańcach 02,54.344687536345,18.673101886717,1689
1698,Grzybowa 01,54.360970840629,18.461043511725,1698
1704,Kopeckiego 01,54.337270201202,18.612798776726,1704
1705,Łanowa I 01,54.328253916892,18.670292561819,1705
1721,Gostyńska Szpital 02,54.347395677515,18.510647786094,1721
1725,Sobótki 02,54.374830819618,18.605583814379,1725
1726,Belgradzka 03,54.356548165873,18.587223209755,1726
1728,Skarżyńskiego 01,54.386923161647,18.601105783928,1728
1737,Skarżyńskiego 02,54.386446910648,18.60247363107,1737
1740,Beniowskiego 01,54.409432044504,18.578954886481,1740
1750,Ogrody Działkowe "Rębiechowo" III 01,54.373886221444,18.468576959064,1750
1760,Stokrotki 01,54.332559203506,18.666065002524,1760
1762,Pomorska 03,54.420137265647,18.585152823577,1762
1764,Sobieszewska 01,54.347112257235,18.813777904522,1764
1765,Oriona 02,54.417453902083,18.454962363055,1765
1772,Kolonia Mysia 01,54.331955027815,18.642856482023,1772
1773,Kolonia Mysia 02,54.331797866423,18.642634739719,1773
1774,Głucha 01,54.327823888693,18.641231755542,1774
1780,Sikorskiego 04,54.338090348575,18.620182091614,1780
1789,Wieżycka 02,54.318098607419,18.586799043004,1789
1793,Abrahama 02,54.393797150682,18.581123875302,1793
1794,Abrahama 01,54.392676999045,18.583546819447,1794
1797,Łapińska 02,54.339761037241,18.500985466534,1797
1801,Stokłosy 04,54.352511121141,18.479480196958,1801
1802,Złota Karczma 01,54.375002388095,18.521912165027,1802
1803,Szadółki Obwodnica 02,54.322973096871,18.542820904501,1803
1810,Połczyńska 01,54.333317080418,18.542203870868,1810
1811,Dębinki 01,54.363429215784,18.63187881733,1811
1826,Bajana 03,54.3896655514,18.607923817618,1826
1828,Forsycji 01,54.342489462386,18.857749449094,1828
1833,Obrońców Westerplatte 05,54.408728805871,18.563661976472,1833
1840,Hala "Olivia" 01,54.401460833871,18.574170260023,1840
1841,Hala "Olivia" 02,54.40182776069,18.573193249006,1841
1843,Turystyczna 02,54.342503266467,18.852963800504,1843
1845,Sąsiedzka 02,54.370429468701,18.503741742813,1845
1846,Nad Jarem 02,54.355013801306,18.615402053789,1846
1852,Przywidzka 03,54.324574788067,18.549077325768,1852
1886,Owczarnia 01,54.412895909707,18.481108478882,1886
1887,Ikara 04,54.389362600372,18.482535465225,1887
1888,Ikara 03,54.389358756447,18.482782172347,1888
1893,Marynarki Polskiej 03,54.398382315347,18.666534213266,1893
1916,Szpital Zakaźny 01,54.363859106015,18.616274938185,1916
1917,Szpital Zakaźny 02,54.36454823797,18.616573695431,1917
1918,Radarowa 02,54.393147125457,18.485107518614,1918
1921,Centrum Medycyny Inwazyjnej 02,54.36622606857,18.619139883561,1921
1932,Porębskiego 02,54.317563492202,18.582524748785,1932
1979,Wilanowska 04,54.336420286306,18.598063816439,1979
1991,AmberExpo 01,54.387471904388,18.635746524104,1991
1992,AmberExpo 02,54.387167800889,18.63582562583,1992
1993,Żaglowa - AmberExpo 04,54.384220325194,18.640939152783,1993
2001,Dworzec Główny 01,54.355391930727,18.645639267843,2001
2002,Dworzec Główny 02,54.355406889916,18.645484500497,2002
2008,Chodowieckiego 02,54.363881783335,18.638456955434,2008
2011,Traugutta 01,54.369228260995,18.629620446749,2011
2012,Traugutta 02,54.369041802773,18.629738965056,2012
2015,Opera Bałtycka 01,54.372142686457,18.624679273233,2015
2016,Politechnika 02,54.37394117716,18.621511168949,2016
2017,Politechnika 01,54.374039346487,18.621474695403,2017
2021,Jaśkowa Dolina 01,54.378434391498,18.60642118973,2021
2025,Galeria Bałtycka 01,54.382332852685,18.598570553109,2025
2030,Zajezdnia 02,54.388429985671,18.581562942024,2030
2031,Zajezdnia 01,54.388483861608,18.581559772315,2031
2035,Uniwersytet Gdański 01,54.395748823869,18.571765084858,2035
2039,Tetmajera 01,54.402645966638,18.565609849339,2039
2043,Obrońców Westerplatte 01,54.408364325176,18.562974674762,2043
2048,Opacka 02,54.413747369456,18.565552952418,2048
2051,Pomorska - Osiedle 01,54.418124635169,18.57757914965,2051
2054,Gospody 02,54.419861632063,18.582610053198,2054
2055,Osiedle Wejhera 01,54.420404227239,18.584566739303,2055
2066,Stocznia Północna 02,54.371766948518,18.633923981653,2066
2067,Twarda 01,54.374556548672,18.631315160292,2067
2068,Twarda 02,54.374381707823,18.631109653229,2068
2069,Kliniczna 01,54.375402996811,18.626354221785,2069
2070,Kliniczna 02,54.375362939336,18.62660291294,2070
2072,Wyspiańskiego 02,54.37640779616,18.623508991137,2072
2084,Żwirki i Wigury 02,54.3918499257,18.6061021467,2084
2086,Jana Pawła II 02,54.394313220209,18.60203016451,2086
2089,Zaspa 01,54.39934972357,18.59491059671,2089
2092,Kołobrzeska 02,54.404359004924,18.590949840603,2092
2094,Bora-Komorowskiego 02,54.409050861494,18.58865577116,2094
2096,Czerwony Dwór 02,54.41261977554,18.587752656976,2096
2122,Sucharskiego 01,54.359833592067,18.690793743199,2122
2123,Kaczeńce 01,54.363256225118,18.699607113711,2123
2135,Dworzec PKS 01,54.356769312683,18.6434364228,2135
2145,Zakopiańska 02,54.348820473473,18.618623129207,2145
2146,Zakopiańska 01,54.34876156071,18.618826591122,2146
2147,Skrajna 02,54.349088711537,18.612636716745,2147
2148,Skrajna 01,54.348984606853,18.61282742052,2148
2157,Żaglowa - AmberExpo 02,54.382477426737,18.63869815122,2157
2161,Polsat Plus Arena Gdańsk 02,54.387362520686,18.649014921645,2161
2171,Mickiewicza 03,54.383784869484,18.62195826571,2171
2177,Grudziądzka 02,54.396342806209,18.622371726985,2177
2184,Dworska 02,54.404089106212,18.624049956627,2184
2192,Krasickiego 01,54.406334690007,18.643676074387,2192
2219,Chełm Witosa 02,54.337225015841,18.616878281323,2219
2226,Wilanowska 01,54.33639282852,18.598942318372,2226
2227,Przemyska 02,54.333113174616,18.596318407205,2227
2228,Przemyska 01,54.333286541151,18.596446738037,2228
5602,Pruszcz Gdański Przemysłowa 01,54.270441302554,18.638014188943,5602
5607,Pruszcz Gdański Nowowiejskiego 02,54.2495255933,18.632716208691,5607
5608,Pruszcz Gdański Nowowiejskiego 01,54.251044453553,18.633151162608,5608
5701,Pruszcz Gdański Pogotowie Ratunkowe 01,54.265024866713,18.634576781157,5701
5817,Pruszcz Gdański Reymonta 01,54.259441641945,18.66729630793,5817
5828,Pruszcz Gdański Sienkiewicza 02,54.262572217974,18.658596651462,5828
5837,Pruszcz Gdański Obrońców Westerplatte 01,54.266024587421,18.656296891256,5837
5839,Pruszcz Gdański Wiśniewskiego 01,54.264626036896,18.650955150503,5839
5871,Pruszcz Gdański Żwirki i Wigury 02,54.259144089159,18.650130638063,5871
7427,Rębiechowo Piaskowa 01,54.386740779268,18.423484546679,7427
7432,Banino Szkoła 01,54.390823344271,18.411767089792,7432
7578,Chwaszczyno Szmaragdowa 01,54.442573723591,18.432519202588,7578
7989,Miszewo Pępowo 01,54.379802001233,18.361575133962,7989
7991,Małkowo 01,54.370055978912,18.36320121856,7991
7998,Żukowo Urząd Gminy 02,54.34212079545,18.357773960797,7998
8227,Gdynia Dąbrowa Centrum 04,54.473171765507,18.465086607966,8227
8234,Centrum Nadawcze RTV 02,54.45183238458,18.439237055047,8234
8236,Chwaszczyno 01,54.443431511929,18.420881330369,8236
8247,Gdynia Dąbrowa Centrum 01,54.473936379726,18.465965485503,8247
8308,Gdynia Karwiny PKM 02,54.469300353772,18.505841705245,8308
8313,Gdynia Myśliwska 02,54.471244367387,18.488590301376,8313
14413,Gościnna 03,54.322944120471,18.632145241516,331
14425,Stogi 08,54.362565645631,18.716255441778,138
14428,Banino Borowiecka 02,54.39319234271,18.403190694587,7981
14447,Mjr Hubala 02,54.387375360756,18.577389058917,1822
14451,Szpital Marynarki Wojennej 02,54.393829369961,18.567518644514,1816
14452,Szpital Marynarki Wojennej 01,54.39392381386,18.567744142743,1817
14464,Śródmieście SKM 01,54.347678195639,18.64423381873,2208
14470,Sopot Przylesie 01,54.447807787513,18.540593052893,406
14472,Sopot Okrężna 01,54.446977564216,18.551055308782,4052
14475,Sopot PKP - Niepodległości 02,54.438601360327,18.560500452089,4002
14482,Sopot 3 Maja 01,54.434050901187,18.561757911272,4043
14489,Sopot Polna 01,54.434152737762,18.579778976129,4061
14495,Sopot Bitwy pod Płowcami 02,54.437730377362,18.573938818715,4064
14496,Sopot Polna 02,54.434322442596,18.579275495385,4062
14503,Sopot Sikorskiego 03,54.441488155783,18.556549972614,4077
14509,Sopot Grand Hotel 02,54.446444416183,18.567823956309,4071
14521,Sopot 23 Marca 01,54.448073159778,18.544356587034,4054
14527,Sopot PKP 02,54.441431616714,18.563540298205,4046
14535,Piekarnicza 02,54.351550816587,18.592225457123,2273
14537,Belgradzka 02,54.35566491446,18.588460133166,2271
14544,Brętowo PKM 01,54.364859186278,18.573542379643,2268
14545,Budapesztańska 02,54.356189575844,18.578748024294,2264
14546,Budapesztańska 01,54.355945281991,18.578670046796,2265
14551,Biblioteka Główna UG 01,54.398805083032,18.576222192195,1678
14558,Sopot Junaków 02,54.4555175503,18.547490329801,4092
14562,Rondo Mazowieckiego 02,54.388869322547,18.648836324034,1988
14568,Pruszcz Gdański Dąbrowskiego 01,54.257941682544,18.649323818704,5872
14569,Pruszcz Gdański Faktoria 01,54.255725915654,18.63257586424,5849
14570,Pruszcz Gdański Faktoria 02,54.255367263602,18.632166509115,5850
14579,Pruszcz Gdański Obrońców Wybrzeża 02,54.258755053332,18.627979964457,5854
14600,Pruszcz Gdański Aeroklub Gdański 02,54.254656093074,18.671328142109,5806
14608,Pruszcz Gdański Osiedle Wschód 92,54.260178494873,18.672859468628,9820
14614,Kowale Starowiejska 02,54.308779334869,18.56016333306,6023
14615,Kowale Starowiejska 01,54.309341109649,18.561713634853,6024
14620,Jankowo 01,54.294923346326,18.554282148706,604
14633,Przejazdowo Jesionowa 02,54.323358366928,18.746187719945,5107
14636,Przejazdowo Sezonowa 01,54.332335319207,18.744066100031,5104
14641,Wiślinka Pocztowa 02,54.338433364737,18.801685050393,5125
14643,Wiślinka Sportowa 02,54.335315654029,18.814142534041,5127
14667,Pruszcz Gdański Pogotowie Ratunkowe 02,54.264881135005,18.634124291401,5700
14685,Niestępowo Sulmińska 14,54.318331216318,18.451291925172,7916
14687,Niestępowo Gdańska 03,54.315655051731,18.442938543677,7917
14690,Niestępowo Do Zdroju 07,54.319507579061,18.425414030426,7921
14695,Legionów 05,54.387161074055,18.609471242197,1974
14698,Fabryczna 02,54.353565744718,18.493852422723,1699
14710,Kowale Osiedle Cytrusowe 02,54.302779115123,18.574675773279,6015
14724,Otomin Dziewicza 02,54.326402902602,18.528527616986,6002
14726,Otomin Sarnia 02,54.324732121798,18.517215773112,6003
14742,Sulmin Wrzosowe Wzgórze 18,54.314557532353,18.46333450545,7912
14803,Zajezdnia WRZESZCZ T2,54.389942720508,18.578993840559,691
14813,Kaczeńce 04,54.363078454898,18.698770390587,3123
14815,Królewskie Wzgórze 01,54.349785397594,18.574107805034,2261
14822,Zabornia 02,54.338275200738,18.572170417313,2254
14824,Zabornia 06,54.33779838758,18.570813890332,3991
14833,Królewskie Wzgórze 03,54.350376204063,18.573088057167,1891
14835,Łabędzia 03,54.347620190212,18.572388772516,3997
14836,Stolema 04,54.341110520079,18.570556961064,3994
14837,Stolema 03,54.340697161776,18.5705659622,3995
14839,Zabornia 03,54.336756146228,18.572183043321,3993
14847,Pokładowa 91,54.395063313375,18.688398774242,9079
14850,Oczyszczalnia 03,54.341869954587,18.757867930753,361
14854,Brama Żuławska 05,54.348719864733,18.669165335417,3100
14856,Maćkowy 01,54.307044343497,18.6131655456,333
14858,Europejskie Centrum Solidarności 02,54.362155060056,18.651317426771,3086
14893,Szadółki 04,54.32896802182,18.550261836004,3805
14894,Stężycka 02,54.33553217683,18.530933579004,3811
14896,Łagowska 01,54.337407234508,18.523728743291,3814
14897,Łagowska 02,54.337512943871,18.524060855214,3813
14900,Lipuska 02,54.338553130509,18.510828477182,3818
14903,Bysewo Centrum Magazynowe 01,54.369746612467,18.451725423315,166
14910,Barzychowskiej 01,54.308460235089,18.582704963183,3129
14916,Nowiny 04,54.318400068758,18.628731121186,3017
14917,Źródlana 03,54.341634758182,18.550693066667,3258
14919,Owczarnia 03,54.414929519,18.479904752156,397
14921,Sopot Sobieskiego - Przychodnia 02,54.43928025743,18.567415825486,9071
14922,Sopot Chopina 03,54.442528956313,18.5702617464,4082
14923,Sopot PKP 01,54.441204438623,18.564756834461,4083
14925,Pruszcz Gdański Domejki 01,54.267503964422,18.628521778499,5861
14926,Przegalina 02,54.311464262091,18.917121698604,343
14927,Niedźwiednik 02,54.38041444217,18.55896401058,353
14929,Podleckiego 01,54.307293996068,18.591812896206,3121
14933,Belgradzka 04,54.35561779835,18.588801505731,3725
14936,Chwaszczyno Nytbusz 01,54.452829316009,18.425659410324,8217
14945,Warneńska 01,54.357629007706,18.582834630045,7000
14962,Przeróbka 01,54.357480951743,18.683429945781,7005
14963,Przeróbka 02,54.357238143506,18.682489326398,7006
14964,Lenartowicza 01,54.358040640783,18.686830859731,7007
14965,Lenartowicza 02,54.357634904893,18.686299557717,7008
